city,state,lat,lng
Adak,AK,51.8815,-176.6295
Akhiok,AK,56.945,-154.2151
Akiachak,AK,60.9209,-161.402
Akiak,AK,60.9061,-161.2122
Akutan,AK,54.1594,-165.7328
Alakanuk,AK,62.6902,-164.6305
Alatna,AK,66.5638,-152.8385
Alcan Border,AK,62.6727,-141.1321
Aleknagik,AK,59.2946,-158.6896
Aleneva,AK,58.059,-152.9091
Allakaket,AK,66.5506,-152.627
Ambler,AK,67.0897,-157.8725
Anaktuvuk Pass,AK,68.15,-151.7162
Anchor Point,AK,59.7703,-151.7052
Anchorage,AK,61.1508,-149.1091
Anderson,AK,64.3074,-149.1562
Angoon,AK,57.455,-134.4978
Aniak,AK,61.5817,-159.5451
Anvik,AK,62.6541,-160.214
Arctic Village,AK,68.1421,-145.4957
Atka,AK,52.2301,-174.2133
Atmautluak,AK,60.8622,-162.2858
Atqasuk,AK,70.481,-157.3835
Attu Station,AK,52.8955,173.123
Badger,AK,64.8006,-147.3877
Bear Creek,AK,60.2071,-149.3524
Beaver,AK,66.383,-147.3219
Beluga,AK,61.1869,-151.1637
Bethel,AK,60.7928,-161.7917
Bettles,AK,66.9084,-151.5369
Big Delta,AK,64.1486,-145.7453
Big Lake,AK,61.526,-149.972
Birch Creek,AK,66.2686,-145.8698
Brevig Mission,AK,65.3413,-166.4953
Buckland,AK,65.9784,-161.1341
Buffalo Soapstone,AK,61.7073,-149.1095
Butte,AK,61.5539,-149.0035
Cantwell,AK,63.379,-148.8158
Central,AK,65.5213,-144.6409
Chalkyitsik,AK,66.6468,-143.7822
Chase,AK,62.4624,-149.9371
Chefornak,AK,60.155,-164.255
Chena Ridge,AK,64.7941,-148.0357
Chenega,AK,60.0757,-148.0194
Chevak,AK,61.5295,-165.5943
Chickaloon,AK,61.804,-148.4103
Chicken,AK,64.0878,-141.8283
Chignik,AK,56.3003,-158.4132
Chignik Lagoon,AK,56.3041,-158.5004
Chignik Lake,AK,56.2631,-158.8049
Chistochina,AK,62.5921,-144.8135
Chitina,AK,61.5276,-144.2991
Chuathbaluk,AK,61.5746,-159.2489
Circle,AK,65.7936,-144.1813
Clam Gulch,AK,60.2001,-151.3939
Clark's Point,AK,58.8329,-158.5276
Coffman Cove,AK,56.0057,-132.8395
Cohoe,AK,60.2681,-151.2843
Cold Bay,AK,55.2122,-162.7475
Coldfoot,AK,67.2475,-150.1079
College,AK,64.8694,-147.8217
Cooper Landing,AK,60.4945,-149.841
Copper Center,AK,61.9845,-145.3544
Cordova,AK,60.5348,-145.6092
Covenant Life,AK,59.3998,-136.0948
Craig,AK,55.4913,-133.1165
Crooked Creek,AK,61.8439,-158.1082
Crown Point,AK,60.4267,-149.3529
Deering,AK,66.0723,-162.7437
Delta Junction,AK,64.0604,-145.7058
Deltana,AK,63.8724,-145.2158
Denali Park,AK,63.5909,-148.7107
Diamond Ridge,AK,59.7024,-151.5545
Dillingham,AK,59.055,-158.5379
Diomede,AK,65.7536,-168.9219
Dot Lake Village,AK,63.6622,-144.016
Dry Creek,AK,63.6255,-144.6364
Eagle,AK,64.7813,-141.1979
Eagle Village,AK,64.7434,-141.1138
Edna Bay,AK,55.964,-133.6662
Eek,AK,60.2164,-162.0331
Egegik,AK,58.2181,-157.4036
Eielson AFB,AK,64.6741,-147.0605
Ekwok,AK,59.3462,-157.4861
Elfin Cove,AK,58.1912,-136.3129
Elim,AK,64.6184,-162.2762
Emmonak,AK,62.7762,-164.5157
Ester,AK,64.8646,-148.0916
Evansville,AK,66.9205,-151.4203
Excursion Inlet,AK,58.4355,-135.373
Fairbanks,AK,64.8353,-147.6534
False Pass,AK,54.8416,-163.348
Farm Loop,AK,61.6394,-149.1471
Farmers Loop,AK,64.9061,-147.6957
Ferry,AK,64.0496,-148.9205
Fishhook,AK,61.711,-149.2657
Fort Greely,AK,63.9678,-145.7148
Fort Yukon,AK,66.5806,-145.2415
Four Mile Road,AK,64.6045,-149.1222
Fox,AK,64.9749,-147.609
Fox River,AK,59.8723,-150.9984
Fritz Creek,AK,59.747,-151.2884
Funny River,AK,60.4873,-150.7808
Gakona,AK,62.3609,-145.2657
Galena,AK,64.7381,-156.8635
Gambell,AK,63.7538,-171.6881
Gateway,AK,61.5737,-149.2389
Glacier View,AK,61.8511,-147.7764
Glennallen,AK,62.1278,-145.7693
Goldstream,AK,64.9339,-148.0083
Golovin,AK,64.564,-162.9989
Goodnews Bay,AK,59.1271,-161.5754
Grayling,AK,62.8998,-160.1078
Gulkana,AK,62.2152,-145.4449
Gustavus,AK,58.4275,-135.7492
Haines,AK,59.2417,-135.4549
Halibut Cove,AK,59.5744,-151.2296
Happy Valley,AK,59.9137,-151.6072
Harding-Birch Lakes,AK,64.3711,-146.5999
Healy,AK,63.9454,-149.0152
Healy Lake,AK,64.0281,-144.633
Hollis,AK,55.5113,-132.7023
Holy Cross,AK,62.1868,-159.8198
Homer,AK,59.653,-151.5255
Hoonah,AK,58.1118,-135.4246
Hooper Bay,AK,61.5262,-166.1146
Hope,AK,60.8925,-149.6352
Houston,AK,61.6159,-149.8003
Hughes,AK,66.0452,-154.2376
Huslia,AK,65.7002,-156.3386
Hydaburg,AK,55.2061,-132.8208
Hyder,AK,55.9816,-130.0383
Igiugig,AK,59.3056,-155.8738
Iliamna,AK,59.7957,-154.8698
Juneau,AK,58.4546,-134.1739
Kachemak,AK,59.6745,-151.4364
Kake,AK,56.9727,-133.9145
Kaktovik,AK,70.123,-143.6262
Kalifornsky,AK,60.4417,-151.1972
Kaltag,AK,64.3223,-158.7436
Karluk,AK,57.5845,-154.3255
Kasaan,AK,55.5573,-132.4137
Kasigluk,AK,60.8785,-162.5272
Kasilof,AK,60.331,-151.2293
Kenai,AK,60.5619,-151.1985
Kenny Lake,AK,61.6644,-144.8662
Ketchikan,AK,55.3556,-131.6698
Kiana,AK,66.9726,-160.4344
King Cove,AK,55.0858,-162.2978
King Salmon,AK,58.753,-156.5061
Kipnuk,AK,59.9373,-164.0616
Kivalina,AK,67.733,-164.5212
Klawock,AK,55.5556,-133.0868
Klukwan,AK,59.3987,-135.8886
Knik River,AK,61.4606,-148.9155
Knik-Fairview,AK,61.4964,-149.6535
Kobuk,AK,66.931,-156.8939
Kodiak,AK,57.7934,-152.406
Kodiak Station,AK,57.7451,-152.5443
Kokhanok,AK,59.4158,-154.7456
Koliganek,AK,59.6971,-157.2258
Kongiganak,AK,59.958,-162.8831
Kotlik,AK,63.0305,-163.553
Kotzebue,AK,66.8766,-162.5231
Koyuk,AK,64.9411,-161.1454
Koyukuk,AK,64.9008,-157.6946
Kupreanof,AK,56.8089,-132.9889
Kwethluk,AK,60.7978,-161.4147
Kwigillingok,AK,59.8767,-163.1717
Lake Louise,AK,62.3131,-146.5625
Lake Minchumina,AK,63.798,-152.3448
Larsen Bay,AK,57.5404,-154.0056
Lazy Mountain,AK,61.6516,-148.902
Levelock,AK,59.0683,-156.901
Lime Village,AK,61.327,-155.3181
Livengood,AK,65.4817,-148.4171
Lowell Point,AK,60.0629,-149.4898
Lower Kalskag,AK,61.5163,-160.3556
Lutak,AK,59.3997,-135.6314
Manley Hot Springs,AK,65.0187,-150.6453
Manokotak,AK,58.893,-158.9109
Marshall,AK,61.8753,-162.0488
McGrath,AK,62.9424,-155.563
Meadow Lakes,AK,61.638,-149.608
Mekoryuk,AK,60.3704,-166.267
Mendeltna,AK,62.1359,-146.5388
Mentasta Lake,AK,62.9867,-143.5191
Metlakatla,AK,55.1182,-131.5689
Minto,AK,65.1033,-149.5565
Moose Creek,AK,64.714,-147.1639
Moose Pass,AK,60.4997,-149.4464
Mosquito Lake,AK,59.471,-136.1458
Mountain Village,AK,62.0911,-163.7209
Mud Bay,AK,59.1517,-135.3584
Naknek,AK,58.7847,-156.8967
Nanwalek,AK,59.3302,-151.911
Napakiak,AK,60.6923,-161.9822
Napaskiak,AK,60.7018,-161.7616
Naukati Bay,AK,55.8801,-133.1993
Nelchina,AK,61.9989,-146.8112
Nelson Lagoon,AK,55.8451,-161.6103
Nenana,AK,64.5384,-149.0859
New Stuyahok,AK,59.4762,-157.271
Newhalen,AK,59.727,-154.897
Newtok,AK,60.9341,-164.6385
Nightmute,AK,60.4874,-164.8195
Nikiski,AK,60.7152,-151.2317
Nikolaevsk,AK,59.8295,-151.5964
Nikolai,AK,63.0095,-154.3763
Nikolski,AK,53.0133,-168.7536
Ninilchik,AK,60.0745,-151.3843
Noatak,AK,67.5987,-163.0309
Nome,AK,64.5213,-165.4053
Nondalton,AK,59.9711,-154.8627
Noorvik,AK,66.8292,-161.0376
North Pole,AK,64.753,-147.36
Northway,AK,62.9479,-141.8322
Nuiqsut,AK,70.2135,-150.9897
Nulato,AK,64.7052,-158.2383
Nunam Iqua,AK,62.511,-164.8998
Nunapitchuk,AK,60.8772,-162.4615
Old Harbor,AK,57.2169,-153.3252
Oscarville,AK,60.7288,-161.7728
Ouzinkie,AK,57.9222,-152.4674
Palmer,AK,61.5971,-149.1147
Pedro Bay,AK,59.7822,-154.1236
Pelican,AK,57.9577,-136.2177
Perryville,AK,55.9315,-159.1559
Petersburg,AK,56.7566,-132.8727
Pilot Point,AK,57.5585,-157.6798
Pilot Station,AK,61.9422,-162.8828
Pitkas Point,AK,62.0374,-163.2681
Platinum,AK,58.978,-161.7185
Pleasant Valley,AK,64.8855,-146.8986
Point Hope,AK,68.3445,-166.6738
Point Lay,AK,69.7442,-162.8678
Point MacKenzie,AK,61.3463,-150.0787
Port Alexander,AK,56.2346,-134.6532
Port Alsworth,AK,60.1688,-154.3233
Port Clarence,AK,65.1108,-166.7683
Port Graham,AK,59.34,-151.8464
Port Heiden,AK,56.9426,-158.6047
Port Lions,AK,57.8754,-152.8745
Port Protection,AK,56.3293,-133.594
Primrose,AK,60.3497,-149.3199
Prudhoe Bay,AK,70.3128,-148.6955
Quinhagak,AK,59.7511,-161.8993
Rampart,AK,65.4087,-149.9915
Red Devil,AK,61.7735,-157.346
Red Dog Mine,AK,68.0645,-162.8667
Ridgeway,AK,60.5305,-151.0301
Ruby,AK,64.7233,-155.5006
Russian Mission,AK,61.7825,-161.3567
Salamatof,AK,60.6154,-151.3159
Salcha,AK,64.5272,-146.904
Sand Point,AK,55.3227,-160.4834
Savoonga,AK,63.6797,-170.4831
Saxman,AK,55.3232,-131.589
Scammon Bay,AK,61.842,-165.5833
Selawik,AK,66.5988,-159.9995
Seldovia,AK,59.4396,-151.7111
Seldovia Village,AK,59.453,-151.5905
Seward,AK,60.1124,-149.3925
Shageluk,AK,62.6684,-159.563
Shaktoolik,AK,64.3567,-161.1972
Shishmaref,AK,66.2372,-166.1027
Shungnak,AK,66.8805,-157.1499
Silver Springs,AK,62.0193,-145.3584
Sitka,AK,57.2401,-135.3153
Skagway,AK,59.4566,-135.2927
Skwentna,AK,61.9314,-151.2096
Sleetmute,AK,61.6516,-157.1251
Soldotna,AK,60.4862,-151.0672
South Naknek,AK,58.6638,-156.9908
South Van Horn,AK,64.8091,-147.7855
St. George,AK,56.5791,-169.6114
St. Mary's,AK,62.0718,-163.2805
St. Michael,AK,63.4664,-162.1324
St. Paul,AK,57.1815,-170.2743
Stebbins,AK,63.4706,-162.2597
Steele Creek,AK,64.9295,-147.3955
Sterling,AK,60.5405,-150.8089
Stevens Village,AK,66.025,-149.0802
Stony River,AK,61.7936,-156.586
Sunrise,AK,60.8701,-149.4678
Susitna North,AK,62.1281,-149.8593
Sutton-Alpine,AK,61.7429,-148.8542
Takotna,AK,62.9823,-156.0841
Talkeetna,AK,62.2753,-150.0814
Tanacross,AK,63.3523,-143.4318
Tanaina,AK,61.656,-149.4272
Tanana,AK,65.1746,-152.0686
Tatitlek,AK,60.8921,-146.6727
Tazlina,AK,62.0536,-145.4362
Teller,AK,65.2531,-166.342
Tenakee Springs,AK,57.7913,-135.1955
Tetlin,AK,63.1481,-142.4947
Thorne Bay,AK,55.6652,-132.5337
Togiak,AK,59.0693,-160.4727
Tok,AK,63.329,-143.0379
Toksook Bay,AK,60.5333,-165.1557
Tonsina,AK,61.5617,-145.0656
Trapper Creek,AK,62.3189,-150.3965
Tuluksak,AK,61.105,-160.9493
Tuntutuliak,AK,60.3843,-162.6838
Tununak,AK,60.579,-165.2077
Twin Hills,AK,59.0815,-160.2826
Two Rivers,AK,64.8908,-147.0898
Tyonek,AK,61.0734,-151.3331
Ugashik,AK,57.5736,-157.1232
Unalakleet,AK,63.8922,-160.786
Unalaska,AK,53.8984,-166.568
Upper Kalskag,AK,61.5416,-160.3337
Utqiagvik,AK,71.2728,-156.7575
Valdez,AK,61.0963,-146.2596
Venetie,AK,67.0206,-146.3741
Wainwright,AK,70.638,-159.9713
Wales,AK,65.6119,-168.0773
Wasilla,AK,61.577,-149.466
Whale Pass,AK,56.1053,-133.1244
White Mountain,AK,64.6812,-163.4228
Whitestone,AK,64.1528,-145.9061
Whittier,AK,60.7852,-148.6455
Willow,AK,61.8157,-149.753
Wiseman,AK,67.4371,-150.1334
Womens Bay,AK,57.696,-152.6276
Wrangell,AK,56.3317,-132.0223
Yakutat,AK,59.567,-139.5966
Abanda,AL,33.0926,-85.5253
Abbeville,AL,31.5664,-85.2528
Adamsville,AL,33.6063,-86.9745
Addison,AL,34.2017,-87.1765
Akron,AL,32.8785,-87.7429
Alabaster,AL,33.2198,-86.8225
Albertville,AL,34.2634,-86.2107
Alexander City,AL,32.9242,-85.9361
Alexandria,AL,33.7675,-85.8792
Aliceville,AL,33.1237,-88.1594
Allgood,AL,33.9064,-86.5178
Altoona,AL,34.031,-86.3181
Andalusia,AL,31.3101,-86.4781
Anderson,AL,34.9147,-87.2716
Anniston,AL,33.6712,-85.8136
Arab,AL,34.3309,-86.4991
Ardmore,AL,34.9847,-86.8373
Argo,AL,33.6961,-86.5066
Ariton,AL,31.5978,-85.7131
Arley,AL,34.0886,-87.2074
Ashford,AL,31.1858,-85.2359
Ashland,AL,33.2704,-85.8337
Ashville,AL,33.8331,-86.2698
Athens,AL,34.7847,-86.951
Atmore,AL,31.0927,-87.4763
Attalla,AL,34.0049,-86.104
Auburn,AL,32.6087,-85.4899
Autaugaville,AL,32.432,-86.6579
Avon,AL,31.1799,-85.2802
Axis,AL,30.9296,-88.0179
Babbie,AL,31.3022,-86.3229
Baileyton,AL,34.2609,-86.6082
Bakerhill,AL,31.7769,-85.2955
Ballplay,AL,34.0179,-85.7853
Banks,AL,31.8132,-85.8364
Bay Minette,AL,30.893,-87.7912
Bayou La Batre,AL,30.4126,-88.261
Bear Creek,AL,34.2651,-87.7164
Beatrice,AL,31.7332,-87.209
Beaverton,AL,33.9354,-88.0218
Belgreen,AL,34.4767,-87.8653
Belk,AL,33.6516,-87.9286
Bellamy,AL,32.4582,-88.1277
Belle Fontaine,AL,30.492,-88.1131
Benton,AL,32.3078,-86.818
Berlin,AL,34.1868,-86.7442
Berry,AL,33.6623,-87.6079
Bessemer,AL,33.3709,-86.9713
Billingsley,AL,32.661,-86.7087
Birmingham,AL,33.5277,-86.7987
Black,AL,31.0102,-85.7428
Blountsville,AL,34.0814,-86.5867
Blue Ridge,AL,32.501,-86.1839
Blue Springs,AL,31.6635,-85.5035
Boaz,AL,34.1985,-86.1529
Boligee,AL,32.7699,-88.0264
Bon Air,AL,33.2621,-86.3319
Bon Secour,AL,30.3222,-87.7271
Boykin,AL,32.0701,-87.2914
Brantley,AL,31.5822,-86.2569
Brantleyville,AL,33.2196,-86.882
Brent,AL,32.9421,-87.1753
Brewton,AL,31.1111,-87.0737
Bridgeport,AL,34.9495,-85.7243
Brighton,AL,33.4393,-86.9454
Brilliant,AL,34.0256,-87.7691
Bristow Cove,AL,34.1092,-86.241
Brook Highland,AL,33.4359,-86.6849
Brookside,AL,33.638,-86.9014
Brookwood,AL,33.2397,-87.3277
Broomtown,AL,34.3657,-85.5322
Brundidge,AL,31.7182,-85.8177
Bucks,AL,31.017,-88.0249
Butler,AL,32.0965,-88.2108
Calera,AL,33.1249,-86.745
Calvert,AL,31.154,-88.0169
Camden,AL,32.0007,-87.2967
Camp Hill,AL,32.8002,-85.6536
Carbon Hill,AL,33.8944,-87.5224
Cardiff,AL,33.6472,-86.9307
Carlisle-Rockledge,AL,34.114,-86.1191
Carlton,AL,31.343,-87.8378
Carolina,AL,31.2337,-86.5227
Carrollton,AL,33.2619,-88.0951
Castleberry,AL,31.3001,-87.027
Catherine,AL,32.1861,-87.4699
Cedar Bluff,AL,34.2217,-85.5877
Center Point,AL,33.6446,-86.6851
Centre,AL,34.1551,-85.6699
Centreville,AL,32.9597,-87.1334
Chatom,AL,31.4691,-88.246
Chelsea,AL,33.3255,-86.6299
Cherokee,AL,34.7577,-87.967
Chickasaw,AL,30.7714,-88.0793
Childersburg,AL,33.2961,-86.3457
Choccolocco,AL,33.6683,-85.7129
Chunchula,AL,30.9237,-88.2072
Citronelle,AL,31.0952,-88.2468
Clanton,AL,32.844,-86.623
Clay,AL,33.6976,-86.607
Clayhatchee,AL,31.2434,-85.7136
Clayton,AL,31.8822,-85.4604
Cleveland,AL,33.9965,-86.5671
Clio,AL,31.7085,-85.6109
Coaling,AL,33.1641,-87.3534
Coats Bend,AL,34.0774,-85.8742
Coffee Springs,AL,31.1664,-85.9102
Coffeeville,AL,31.7666,-88.0861
Coker,AL,33.2446,-87.6799
Collinsville,AL,34.267,-85.8652
Colony,AL,33.9413,-86.9016
Columbia,AL,31.2968,-85.1103
Columbiana,AL,33.193,-86.6115
Concord,AL,33.4674,-87.0392
Coosada,AL,32.4983,-86.3279
Cordova,AL,33.7613,-87.1925
Cottondale,AL,33.1922,-87.4544
Cottonwood,AL,31.0552,-85.3007
County Line,AL,33.821,-86.7198
Courtland,AL,34.6703,-87.3262
Cowarts,AL,31.2041,-85.3062
Creola,AL,30.8903,-88.01
Crossville,AL,34.2853,-85.9997
Cuba,AL,32.441,-88.3755
Cullman,AL,34.1777,-86.8407
Cullomburg,AL,31.7131,-88.2917
Cusseta,AL,32.7877,-85.3057
Dadeville,AL,32.8326,-85.7675
Daleville,AL,31.2915,-85.7117
Daphne,AL,30.6286,-87.8866
Dauphin Island,AL,30.2525,-88.1438
Daviston,AL,33.0556,-85.6371
Dayton,AL,32.3509,-87.6416
Deatsville,AL,32.5863,-86.3918
Decatur,AL,34.573,-86.9906
Deer Park,AL,31.2198,-88.3226
Delta,AL,33.447,-85.6746
Demopolis,AL,32.498,-87.8298
Detroit,AL,34.0274,-88.1678
Dodge City,AL,34.0453,-86.8837
Dora,AL,33.7292,-87.085
Dothan,AL,31.2335,-85.4069
Double Springs,AL,34.1502,-87.3912
Douglas,AL,34.1705,-86.3224
Dozier,AL,31.5031,-86.3694
Dunnavant,AL,33.5006,-86.538
Dutton,AL,34.6062,-85.9119
East Brewton,AL,31.0906,-87.0556
East Point,AL,34.1859,-86.7927
Eclectic,AL,32.6387,-86.0386
Edgewater,AL,33.5286,-86.9574
Edwardsville,AL,33.8411,-85.4523
Egypt,AL,34.0759,-86.1651
Elba,AL,31.4172,-86.0759
Elberta,AL,30.3855,-87.5888
Eldridge,AL,33.922,-87.6201
Elkmont,AL,34.9289,-86.9765
Elmore,AL,32.5552,-86.3425
Emelle,AL,32.7287,-88.3165
Emerald Mountain,AL,32.4396,-86.0857
Enterprise,AL,31.3276,-85.8459
Epes,AL,32.6906,-88.1405
Ethelsville,AL,33.4141,-88.2161
Eufaula,AL,31.9102,-85.1505
Eunola,AL,31.0326,-85.8409
Eutaw,AL,32.8436,-87.8987
Eva,AL,34.3274,-86.7614
Evergreen,AL,31.4342,-86.9723
Excel,AL,31.4264,-87.3433
Fairfield,AL,33.4747,-86.9194
Fairford,AL,31.178,-88.0728
Fairhope,AL,30.5217,-87.8815
Fairview,AL,34.2477,-86.6843
Falkville,AL,34.3793,-86.9086
Faunsdale,AL,32.4576,-87.5938
Fayette,AL,33.6943,-87.8307
Fayetteville,AL,33.1643,-86.4411
Fitzpatrick,AL,32.2113,-85.8784
Five Points,AL,33.0173,-85.3516
Flomaton,AL,31.0127,-87.2541
Florala,AL,31.0176,-86.3138
Florence,AL,34.8303,-87.6654
Foley,AL,30.3983,-87.6649
Forestdale,AL,33.5737,-86.9002
Forkland,AL,32.6489,-87.8671
Fort Deposit,AL,31.9863,-86.5664
Fort Payne,AL,34.4557,-85.6965
Fort Rucker,AL,31.3428,-85.7154
Franklin,AL,32.4514,-85.7864
Fredonia,AL,32.9861,-85.2912
Frisco City,AL,31.4353,-87.4037
Fruitdale,AL,31.3429,-88.4109
Fruithurst,AL,33.7297,-85.4312
Fulton,AL,31.7916,-87.7397
Fultondale,AL,33.6177,-86.8015
Fyffe,AL,34.4496,-85.9049
Gadsden,AL,34.009,-86.0156
Gainesville,AL,32.8149,-88.1608
Gallant,AL,34.0013,-86.2304
Gantt,AL,31.4092,-86.4842
Garden City,AL,34.0152,-86.752
Gardendale,AL,33.6678,-86.8069
Gaylesville,AL,34.2681,-85.5586
Geiger,AL,32.8698,-88.313
Geneva,AL,31.0437,-85.8763
Georgiana,AL,31.6391,-86.7468
Geraldine,AL,34.3577,-86.0037
Gilbertown,AL,31.8758,-88.3195
Glen Allen,AL,33.8922,-87.7328
Glencoe,AL,33.9449,-85.9319
Glenwood,AL,31.6675,-86.173
Goldville,AL,33.0841,-85.7831
Good Hope,AL,34.1098,-86.8651
Goodwater,AL,33.0608,-86.0516
Gordo,AL,33.322,-87.904
Gordon,AL,31.1436,-85.0925
Gordonville,AL,32.1489,-86.6994
Goshen,AL,31.7182,-86.1242
Graham,AL,33.4552,-85.3231
Grand Bay,AL,30.4717,-88.345
Grant,AL,34.5189,-86.2492
Grayson Valley,AL,33.6469,-86.6414
Graysville,AL,33.6583,-86.9674
Greensboro,AL,32.7014,-87.595
Greenville,AL,31.8437,-86.6379
Grimes,AL,31.2999,-85.4502
Grove Hill,AL,31.7006,-87.7748
Gu-Win,AL,33.9443,-87.8704
Guin,AL,33.9832,-87.9023
Gulf Shores,AL,30.2759,-87.7013
Gulfcrest,AL,30.9925,-88.2399
Guntersville,AL,34.367,-86.2638
Gurley,AL,34.7072,-86.3768
Hackleburg,AL,34.2693,-87.8303
Hackneyville,AL,33.0567,-85.9312
Haleburg,AL,31.4099,-85.1381
Haleyville,AL,34.2331,-87.6175
Hamilton,AL,34.1346,-87.9755
Hammondville,AL,34.5685,-85.6397
Hanceville,AL,34.0634,-86.7651
Harpersville,AL,33.3184,-86.4287
Hartford,AL,31.1055,-85.6916
Hartselle,AL,34.4391,-86.94
Harvest,AL,34.8558,-86.7521
Hatton,AL,34.561,-87.4136
Hayden,AL,33.8822,-86.7839
Hayneville,AL,32.1822,-86.5787
Hazel Green,AL,34.9237,-86.5671
Headland,AL,31.3501,-85.3523
Heath,AL,31.3579,-86.4673
Heflin,AL,33.6471,-85.5698
Helena,AL,33.2845,-86.8756
Henagar,AL,34.631,-85.7405
Highland Lake,AL,33.8876,-86.4244
Highland Lakes,AL,33.397,-86.6497
Hillsboro,AL,34.6408,-87.1837
Hissop,AL,32.8746,-86.1159
Hobson,AL,31.4836,-88.1513
Hobson City,AL,33.6148,-85.8561
Hodges,AL,34.334,-87.9299
Hokes Bluff,AL,33.9902,-85.8639
Hollins,AL,33.1213,-86.129
Hollis Crossroads,AL,33.5231,-85.6437
Holly Pond,AL,34.1696,-86.6125
Hollywood,AL,34.719,-85.965
Holt,AL,33.2302,-87.4827
Holtville,AL,32.6314,-86.3268
Homewood,AL,33.4617,-86.8092
Hoover,AL,33.3754,-86.8064
Horn Hill,AL,31.2382,-86.3211
Hueytown,AL,33.4237,-87.022
Huguley,AL,32.8431,-85.2397
Huntsville,AL,34.6988,-86.6412
Hurtsboro,AL,32.2401,-85.4147
Hytop,AL,34.8965,-86.088
Ider,AL,34.7022,-85.6691
Indian Springs Village,AL,33.3591,-86.7493
Irondale,AL,33.544,-86.6599
Ivalee,AL,34.0372,-86.1472
Jackson,AL,31.5318,-87.8915
Jacksons' Gap,AL,32.8831,-85.815
Jacksonville,AL,33.8088,-85.7545
Jasper,AL,33.8503,-87.2708
Jemison,AL,32.9696,-86.7339
Joppa,AL,34.2982,-86.5506
Kansas,AL,33.9029,-87.5568
Kellyton,AL,32.9791,-86.0358
Kennedy,AL,33.5809,-87.9862
Killen,AL,34.8607,-87.5269
Kimberly,AL,33.776,-86.7968
Kinsey,AL,31.2926,-85.3353
Kinston,AL,31.22,-86.1705
La Fayette,AL,32.8997,-85.4007
Ladonia,AL,32.4609,-85.0877
Lake View,AL,33.2802,-87.1258
Lanett,AL,32.8571,-85.2081
Langston,AL,34.5374,-86.0899
Leeds,AL,33.5429,-86.5636
Leesburg,AL,34.1839,-85.775
Leighton,AL,34.6941,-87.5282
Leroy,AL,31.4952,-87.969
Lester,AL,34.9877,-87.1515
Level Plains,AL,31.3071,-85.7687
Lexington,AL,34.9652,-87.3735
Libertyville,AL,31.2428,-86.46
Lillian,AL,30.4122,-87.432
Lincoln,AL,33.5935,-86.1371
Linden,AL,32.3001,-87.7926
Lineville,AL,33.313,-85.7508
Lipscomb,AL,33.4261,-86.926
Lisman,AL,32.1792,-88.3002
Littleville,AL,34.5951,-87.6719
Livingston,AL,32.5982,-88.1891
Loachapoka,AL,32.6049,-85.5948
Lockhart,AL,31.0128,-86.3505
Locust Fork,AL,33.8957,-86.6301
Lookout Mountain,AL,34.1091,-85.9585
Louisville,AL,31.781,-85.5583
Lowndesboro,AL,32.2764,-86.6108
Loxley,AL,30.6813,-87.7418
Luverne,AL,31.7186,-86.2687
Lynn,AL,34.0548,-87.5555
Macedonia,AL,33.4031,-88.2392
Madison,AL,34.7114,-86.7626
Madrid,AL,31.0356,-85.3992
Magnolia Springs,AL,30.4003,-87.7748
Malcolm,AL,31.1945,-88.0016
Malvern,AL,31.1428,-85.521
Maplesville,AL,32.7867,-86.8783
Marbury,AL,32.6793,-86.4607
Margaret,AL,33.6735,-86.468
Marion,AL,32.6318,-87.3172
Maytown,AL,33.5489,-86.9999
McDonald Chapel,AL,33.5189,-86.9385
McIntosh,AL,31.2649,-88.0284
McKenzie,AL,31.5428,-86.7246
McMullen,AL,33.1481,-88.1757
Meadowbrook,AL,33.3932,-86.7041
Megargel,AL,31.3781,-87.4307
Memphis,AL,33.1369,-88.3008
Mentone,AL,34.5663,-85.5842
Meridianville,AL,34.8729,-86.5722
Midfield,AL,33.4552,-86.9226
Midland City,AL,31.3157,-85.4937
Midway,AL,32.0764,-85.5244
Mignon,AL,33.1948,-86.2651
Millbrook,AL,32.5028,-86.3737
Millerville,AL,33.1926,-85.9303
Millport,AL,33.5586,-88.0817
Millry,AL,31.6256,-88.3191
Minor,AL,33.5389,-86.9402
Mobile,AL,30.6783,-88.1162
Monroeville,AL,31.5162,-87.3279
Montevallo,AL,33.1246,-86.8476
Montgomery,AL,32.3473,-86.2666
Moody,AL,33.5986,-86.4963
Moores Mill,AL,34.8491,-86.5222
Mooresville,AL,34.627,-86.8799
Morris,AL,33.7467,-86.8037
Morrison Crossroads,AL,33.4198,-85.4903
Mosses,AL,32.1801,-86.6888
Moulton,AL,34.4843,-87.2831
Moundville,AL,32.9968,-87.6272
Mount Olive,AL,33.6778,-86.8726
Mount Vernon,AL,31.0889,-88.0137
Mountain Brook,AL,33.4871,-86.74
Movico,AL,31.0628,-88.0266
Mulga,AL,33.5534,-86.9735
Munford,AL,33.5259,-85.9554
Muscle Shoals,AL,34.7436,-87.6344
Myrtlewood,AL,32.2521,-87.9492
Nanafalia,AL,32.1114,-87.9957
Nances Creek,AL,33.8588,-85.6733
Napier Field,AL,31.3149,-85.4549
Natural Bridge,AL,34.0904,-87.6014
Nauvoo,AL,33.9873,-87.4876
Nectar,AL,33.9686,-86.6346
Needham,AL,31.987,-88.3366
New Brockton,AL,31.3784,-85.9228
New Hope,AL,34.537,-86.4128
New Market,AL,34.8892,-86.4226
New Site,AL,33.0283,-85.7801
New Union,AL,34.1422,-86.2218
Newbern,AL,32.592,-87.5331
Newton,AL,31.3423,-85.5893
Newville,AL,31.4206,-85.3367
North Courtland,AL,34.6788,-87.3083
North Johns,AL,33.368,-87.1008
Northport,AL,33.2589,-87.5984
Notasulga,AL,32.5569,-85.6695
Oak Grove,AL,33.1928,-86.3036
Oak Hill,AL,31.9216,-87.0852
Oakman,AL,33.7141,-87.389
Odenville,AL,33.6987,-86.4225
Ohatchee,AL,33.7877,-86.028
Oneonta,AL,33.9392,-86.4929
Onycha,AL,31.2246,-86.2785
Opelika,AL,32.6612,-85.3769
Opp,AL,31.2848,-86.257
Orange Beach,AL,30.2941,-87.5851
Orrville,AL,32.3068,-87.2454
Our Town,AL,32.8304,-85.9687
Owens Cross Roads,AL,34.5845,-86.4574
Oxford,AL,33.5967,-85.8687
Ozark,AL,31.4508,-85.6473
Paint Rock,AL,34.6602,-86.3307
Panola,AL,32.9478,-88.2674
Parrish,AL,33.7323,-87.2802
Pelham,AL,33.3114,-86.7573
Pell City,AL,33.5609,-86.2669
Pennington,AL,32.1994,-88.0494
Penton,AL,33.009,-85.4722
Perdido,AL,31.0033,-87.6324
Perdido Beach,AL,30.3554,-87.5036
Peterman,AL,31.5837,-87.2631
Petrey,AL,31.8495,-86.2057
Phenix City,AL,32.4588,-85.0251
Phil Campbell,AL,34.3519,-87.7062
Pickensville,AL,33.2336,-88.2743
Piedmont,AL,33.9268,-85.6148
Pike Road,AL,32.2934,-86.0902
Pinckard,AL,31.3173,-85.543
Pine Apple,AL,31.8721,-86.9891
Pine Hill,AL,31.9858,-87.5875
Pine Level,AL,32.5797,-86.4529
Pine Ridge,AL,34.449,-85.7808
Pinson,AL,33.7057,-86.6674
Pisgah,AL,34.6844,-85.846
Pleasant Grove,AL,33.4936,-86.9782
Pleasant Groves,AL,34.735,-86.2054
Point Clear,AL,30.4902,-87.9105
Pollard,AL,31.0236,-87.1736
Powell,AL,34.5325,-85.8979
Prattville,AL,32.4605,-86.4588
Priceville,AL,34.5247,-86.8855
Prichard,AL,30.7735,-88.1301
Providence,AL,32.3424,-87.7762
Putnam,AL,32.0181,-88.0331
Ragland,AL,33.7469,-86.1384
Rainbow City,AL,33.9337,-86.0922
Rainsville,AL,34.4939,-85.8435
Ranburne,AL,33.5259,-85.339
Ray,AL,32.879,-86.035
Red Bay,AL,34.4358,-88.1362
Red Level,AL,31.4055,-86.6084
Redland,AL,32.4754,-86.1375
Redstone Arsenal,AL,34.6843,-86.647
Reece City,AL,34.0772,-86.0345
Reeltown,AL,32.5788,-85.8189
Reform,AL,33.3788,-88.0173
Rehobeth,AL,31.1242,-85.4382
Repton,AL,31.4097,-87.2393
Ridgeville,AL,34.0569,-86.1029
River Falls,AL,31.3524,-86.5412
Riverside,AL,33.6171,-86.2042
Riverview,AL,31.0587,-87.0709
Roanoke,AL,33.1454,-85.3694
Robertsdale,AL,30.5534,-87.7023
Rock Creek,AL,33.4772,-87.0812
Rock Mills,AL,33.1563,-85.2861
Rockford,AL,32.8896,-86.215
Rockville,AL,31.4059,-87.8442
Rogersville,AL,34.8251,-87.2821
Rosa,AL,33.9885,-86.5037
Russellville,AL,34.5056,-87.7282
Rutledge,AL,31.724,-86.302
Saks,AL,33.7118,-85.8536
Samson,AL,31.1124,-86.0462
Sand Rock,AL,34.2308,-85.7712
Sanford,AL,31.3006,-86.3975
Saraland,AL,30.8478,-88.1004
Sardis City,AL,34.1749,-86.1125
Satsuma,AL,30.8577,-88.0632
Scottsboro,AL,34.6438,-86.0491
Section,AL,34.5816,-85.9849
Selma,AL,32.4166,-87.0336
Selmont-West Selmont,AL,32.3784,-87.0074
Semmes,AL,30.7941,-88.2358
Sheffield,AL,34.757,-87.6977
Shelby,AL,33.1068,-86.5825
Shiloh,AL,34.4638,-85.878
Shoal Creek,AL,33.4328,-86.6071
Shorter,AL,32.4076,-85.9412
Silas,AL,31.7678,-88.3258
Silverhill,AL,30.5455,-87.7505
Sims Chapel,AL,31.2365,-88.1435
Sipsey,AL,33.8225,-87.0834
Skyline,AL,34.7987,-86.1229
Slocomb,AL,31.1103,-85.5954
Smiths Station,AL,32.5284,-85.096
Smoke Rise,AL,33.8789,-86.824
Snead,AL,34.1162,-86.3901
Somerville,AL,34.4676,-86.7935
South Vinemont,AL,34.2348,-86.8642
Southside,AL,33.9007,-86.0238
Spanish Fort,AL,30.7257,-87.8601
Spring Garden,AL,33.973,-85.5558
Springville,AL,33.7643,-86.4749
Spruce Pine,AL,34.3928,-87.7294
St. Florian,AL,34.8714,-87.6224
St. Stephens,AL,31.5474,-88.0555
Standing Rock,AL,33.0863,-85.2449
Stapleton,AL,30.7394,-87.7943
Steele,AL,33.937,-86.2004
Sterrett,AL,33.449,-86.4645
Stevenson,AL,34.8487,-85.8437
Stewartville,AL,33.0725,-86.2658
Stockton,AL,30.9946,-87.86
Sulligent,AL,33.8912,-88.1266
Sumiton,AL,33.7503,-87.0483
Summerdale,AL,30.4783,-87.6904
Susan Moore,AL,34.0799,-86.4234
Sweet Water,AL,32.1046,-87.8619
Sylacauga,AL,33.1778,-86.2606
Sylvan Springs,AL,33.5287,-87.0312
Sylvania,AL,34.5619,-85.8046
Talladega,AL,33.4329,-86.0976
Talladega Springs,AL,33.1191,-86.4421
Tallassee,AL,32.5314,-85.8902
Tarrant,AL,33.5945,-86.7684
Taylor,AL,31.1658,-85.4697
Theodore,AL,30.5408,-88.1884
Thomaston,AL,32.2683,-87.6237
Thomasville,AL,31.9111,-87.7419
Thorsby,AL,32.917,-86.7203
Tibbie,AL,31.3628,-88.2471
Tidmore Bend,AL,34.0324,-85.9254
Tillmans Corner,AL,30.5818,-88.2128
Town Creek,AL,34.6718,-87.4063
Toxey,AL,31.9107,-88.3091
Trafford,AL,33.8194,-86.7467
Triana,AL,34.5904,-86.7418
Trinity,AL,34.6012,-87.0818
Troy,AL,31.8021,-85.9665
Trussville,AL,33.6404,-86.5819
Tuscaloosa,AL,33.2348,-87.5267
Tuscumbia,AL,34.7204,-87.7035
Tuskegee,AL,32.4395,-85.7139
Twin,AL,33.9978,-87.8497
Underwood-Petersville,AL,34.877,-87.6975
Union,AL,32.9938,-87.9071
Union Grove,AL,34.4025,-86.4483
Union Springs,AL,32.1395,-85.7141
Uniontown,AL,32.449,-87.4958
Uriah,AL,31.3073,-87.4992
Valley,AL,32.8088,-85.1809
Valley Grande,AL,32.4862,-87.0305
Valley Head,AL,34.5575,-85.6214
Vance,AL,33.1745,-87.2313
Vandiver,AL,33.4601,-86.5251
Vernon,AL,33.7588,-88.1143
Vestavia Hills,AL,33.4518,-86.7438
Vina,AL,34.3757,-88.0602
Vincent,AL,33.3848,-86.4086
Vinegar Bend,AL,31.2594,-88.3712
Vredenburgh,AL,31.8237,-87.3178
Wadley,AL,33.1239,-85.5683
Waldo,AL,33.3892,-86.036
Walnut Grove,AL,34.0641,-86.2863
Warrior,AL,33.8153,-86.8153
Waterloo,AL,34.9173,-88.0654
Waverly,AL,32.7333,-85.5761
Weaver,AL,33.7602,-85.8117
Webb,AL,31.2572,-85.2896
Wedowee,AL,33.3077,-85.4864
Weogufka,AL,33.0267,-86.3169
West Blocton,AL,33.1186,-87.1253
West End-Cobb Town,AL,33.6526,-85.8742
West Jefferson,AL,33.652,-87.0569
West Point,AL,34.2401,-86.9626
Westover,AL,33.3685,-86.5346
Wetumpka,AL,32.5407,-86.2052
Whatley,AL,31.6463,-87.7108
White Hall,AL,32.2993,-86.7148
White Plains,AL,33.7603,-85.688
Whitesboro,AL,34.1682,-86.0572
Wilsonville,AL,33.2351,-86.4882
Wilton,AL,33.0813,-86.8799
Winfield,AL,33.9334,-87.7962
Woodland,AL,33.3756,-85.3975
Woodstock,AL,33.2193,-87.1489
Woodville,AL,34.6256,-86.2792
Yellow Bluff,AL,31.9622,-87.4808
York,AL,32.4998,-88.2938
Adona,AR,35.0399,-92.8991
Alexander,AR,34.6185,-92.4512
Alicia,AR,35.8929,-91.0835
Allport,AR,34.5399,-91.784
Alma,AR,35.4919,-94.2165
Almyra,AR,34.4057,-91.4108
Alpena,AR,36.2896,-93.3037
Altheimer,AR,34.3242,-91.8481
Altus,AR,35.4465,-93.7643
Amagon,AR,35.5632,-91.1094
Amity,AR,34.2662,-93.4634
Anthonyville,AR,35.0398,-90.3403
Antoine,AR,34.0343,-93.4226
Arkadelphia,AR,34.1255,-93.0725
Arkansas City,AR,33.609,-91.2048
Ash Flat,AR,36.2365,-91.6067
Ashdown,AR,33.6746,-94.1264
Atkins,AR,35.2414,-92.9465
Aubrey,AR,34.7193,-90.8976
Augusta,AR,35.2866,-91.3614
Austin,AR,35.0061,-91.9895
Avilla,AR,34.6988,-92.5813
Avoca,AR,36.398,-94.071
Bald Knob,AR,35.3123,-91.5709
Banks,AR,33.5758,-92.2671
Barling,AR,35.3284,-94.2792
Bassett,AR,35.5356,-90.1294
Batesville,AR,35.7687,-91.6226
Bauxite,AR,34.5602,-92.4988
Bay,AR,35.7456,-90.5547
Bearden,AR,33.7276,-92.6187
Beaver,AR,36.4752,-93.7727
Beebe,AR,35.0712,-91.8996
Beedeville,AR,35.4292,-91.1107
Bella Vista,AR,36.4667,-94.2707
Bellefonte,AR,36.1998,-93.047
Belleville,AR,35.0915,-93.4458
Ben Lomond,AR,33.8335,-94.1177
Benton,AR,34.5775,-92.5712
Bentonville,AR,36.3546,-94.2306
Bergman,AR,36.3128,-93.0115
Berryville,AR,36.3713,-93.5704
Bethel Heights,AR,36.2262,-94.1282
Big Flat,AR,36.0056,-92.4066
Bigelow,AR,34.9975,-92.6315
Biggers,AR,36.3319,-90.8052
Birdsong,AR,35.4612,-90.2597
Black Oak,AR,35.8365,-90.3677
Black Rock,AR,36.107,-91.1074
Black Springs,AR,34.4607,-93.7123
Blevins,AR,33.8716,-93.5778
Blue Eye,AR,36.4966,-93.3977
Blue Mountain,AR,35.1311,-93.7162
Bluff City,AR,33.7224,-93.1316
Blytheville,AR,35.9321,-89.9051
Bodcaw,AR,33.5607,-93.4013
Bonanza,AR,35.2335,-94.4168
Bono,AR,35.9112,-90.8009
Booneville,AR,35.1393,-93.9179
Bradford,AR,35.422,-91.4552
Bradley,AR,33.0993,-93.6569
Branch,AR,35.3075,-93.9556
Briarcliff,AR,36.2721,-92.2824
Brinkley,AR,34.89,-91.1902
Brookland,AR,35.8991,-90.5767
Bryant,AR,34.6152,-92.4914
Buckner,AR,33.3572,-93.4358
Bull Shoals,AR,36.3747,-92.5903
Burdette,AR,35.8153,-89.9457
Cabot,AR,34.9768,-92.0274
Caddo Valley,AR,34.1897,-93.0679
Caldwell,AR,35.0788,-90.8136
Cale,AR,33.6279,-93.2348
Calico Rock,AR,36.1399,-92.1337
Calion,AR,33.3285,-92.5402
Camden,AR,33.5672,-92.8467
Cammack Village,AR,34.7808,-92.3449
Campbell Station,AR,35.6678,-91.2538
Caraway,AR,35.7598,-90.3224
Carlisle,AR,34.7947,-91.7361
Carthage,AR,34.0726,-92.5553
Casa,AR,35.0253,-93.0448
Cash,AR,35.8013,-90.9315
Caulksville,AR,35.3017,-93.868
Cave City,AR,35.9481,-91.5468
Cave Springs,AR,36.2701,-94.2225
Cedarville,AR,35.583,-94.3615
Center Ridge,AR,35.3806,-92.5702
Centerton,AR,36.3567,-94.2971
Central City,AR,35.33,-94.2347
Charleston,AR,35.2954,-94.0461
Cherokee City,AR,36.2947,-94.5769
Cherokee Village,AR,36.2959,-91.5696
Cherry Valley,AR,35.4021,-90.7545
Chester,AR,35.6778,-94.1778
Chidester,AR,33.702,-93.0238
Clarendon,AR,34.6935,-91.3062
Clarkedale,AR,35.297,-90.2103
Clarksville,AR,35.457,-93.4803
Clinton,AR,35.5796,-92.4543
Coal Hill,AR,35.4375,-93.6647
College Station,AR,34.705,-92.2296
Colt,AR,35.1329,-90.813
Concord,AR,35.6625,-91.849
Conway,AR,35.0754,-92.4694
Corinth,AR,35.0693,-93.4235
Corning,AR,36.4111,-90.5861
Cotter,AR,36.2819,-92.5212
Cotton Plant,AR,35.0059,-91.252
Cove,AR,34.4366,-94.416
Coy,AR,34.5405,-91.8713
Crawfordsville,AR,35.2267,-90.3241
Crossett,AR,33.128,-91.9631
Cushman,AR,35.8658,-91.7781
Daisy,AR,34.2349,-93.7406
Damascus,AR,35.3671,-92.4108
Danville,AR,35.053,-93.3902
Dardanelle,AR,35.2263,-93.1649
Datto,AR,36.3925,-90.7285
De Queen,AR,34.0426,-94.342
De Valls Bluff,AR,34.7859,-91.4602
Decatur,AR,36.3402,-94.4578
Delaplaine,AR,36.2304,-90.7256
Delight,AR,34.0299,-93.5057
Dell,AR,35.8592,-90.026
Dennard,AR,35.7498,-92.5394
Denning,AR,35.4252,-93.7568
Dermott,AR,33.5271,-91.4324
Des Arc,AR,34.9777,-91.5068
DeWitt,AR,34.2873,-91.3383
Diamond City,AR,36.4575,-92.9129
Diaz,AR,35.6478,-91.262
Dierks,AR,34.12,-94.0173
Donaldson,AR,34.235,-92.9195
Dover,AR,35.391,-93.1143
Dumas,AR,33.8849,-91.4861
Dyer,AR,35.4944,-94.1388
Dyess,AR,35.5894,-90.2133
Earle,AR,35.2734,-90.4642
East Camden,AR,33.6082,-92.7436
East End,AR,34.5554,-92.3261
Edmondson,AR,35.1041,-90.3052
Egypt,AR,35.8676,-90.9457
El Dorado,AR,33.2184,-92.664
Elaine,AR,34.3086,-90.8535
Elkins,AR,36.0163,-94.025
Elm Springs,AR,36.2069,-94.2366
Emerson,AR,33.0973,-93.196
Emmet,AR,33.7227,-93.4657
England,AR,34.546,-91.969
Enola,AR,35.1958,-92.2068
Etowah,AR,35.7225,-90.232
Eudora,AR,33.119,-91.264
Eureka Springs,AR,36.4105,-93.745
Evening Shade,AR,36.0701,-91.6218
Everton,AR,36.1541,-92.9095
Fairfield Bay,AR,35.605,-92.2658
Fargo,AR,34.9537,-91.1764
Farmington,AR,36.037,-94.2537
Fayetteville,AR,36.0713,-94.166
Felsenthal,AR,33.0588,-92.1533
Fifty-Six,AR,35.962,-92.2301
Fisher,AR,35.4915,-90.9725
Flippin,AR,36.2774,-92.5935
Fordyce,AR,33.8181,-92.4174
Foreman,AR,33.7198,-94.3979
Forrest City,AR,35.0135,-90.7931
Fort Smith,AR,35.3493,-94.3695
Fouke,AR,33.2622,-93.8852
Fountain Hill,AR,33.3576,-91.8511
Fountain Lake,AR,34.6121,-92.9233
Fourche,AR,34.9933,-92.6189
Franklin,AR,36.1727,-91.7697
Fredonia,AR,34.8197,-91.4102
Friendship,AR,34.2243,-93.0037
Fulton,AR,33.6126,-93.8137
Garfield,AR,36.4554,-93.9757
Garland,AR,33.3609,-93.7142
Garner,AR,35.1418,-91.781
Gassville,AR,36.285,-92.4868
Gateway,AR,36.4854,-93.9365
Gentry,AR,36.257,-94.4907
Georgetown,AR,35.1267,-91.4539
Gibson,AR,34.8923,-92.2341
Gilbert,AR,35.9905,-92.7166
Gillett,AR,34.1193,-91.3789
Gillham,AR,34.1686,-94.3145
Gilmore,AR,35.4131,-90.2973
Glenwood,AR,34.3279,-93.5309
Goshen,AR,36.1043,-94.0035
Gosnell,AR,35.9645,-89.9721
Gould,AR,33.9872,-91.564
Grady,AR,34.079,-91.6981
Grannis,AR,34.2398,-94.322
Gravette,AR,36.4291,-94.3714
Green Forest,AR,36.3344,-93.4286
Greenbrier,AR,35.2289,-92.3836
Greenland,AR,35.9965,-94.1903
Greenway,AR,36.3406,-90.2223
Greenwood,AR,35.2134,-94.2408
Greers Ferry,AR,35.5674,-92.1688
Griffithville,AR,35.1233,-91.6447
Grubbs,AR,35.654,-91.0755
Guion,AR,35.9269,-91.939
Gum Springs,AR,34.0639,-93.0957
Gurdon,AR,33.9155,-93.1544
Guy,AR,35.3272,-92.3366
Hackett,AR,35.1878,-94.4106
Hagarville,AR,35.5151,-93.3335
Hamburg,AR,33.2248,-91.7972
Hampton,AR,33.5363,-92.4661
Hardy,AR,36.3187,-91.4791
Harrell,AR,33.5102,-92.4011
Harrisburg,AR,35.5637,-90.7216
Harrison,AR,36.2438,-93.1198
Hartford,AR,35.0236,-94.3799
Hartman,AR,35.4353,-93.6235
Haskell,AR,34.5095,-92.6406
Hatfield,AR,34.4859,-94.3793
Havana,AR,35.1098,-93.526
Haynes,AR,34.8909,-90.7927
Hazen,AR,34.7966,-91.5725
Heber Springs,AR,35.5003,-92.0332
Hector,AR,35.4644,-92.976
Helena-West Helena,AR,34.5314,-90.6201
Hensley,AR,34.5068,-92.2069
Hermitage,AR,33.4471,-92.1712
Hickory Ridge,AR,35.403,-90.9946
Higden,AR,35.5666,-92.2047
Higginson,AR,35.1968,-91.7152
Highfill,AR,36.2767,-94.3237
Highland,AR,36.2657,-91.5186
Hindsville,AR,36.1458,-93.8627
Holiday Island,AR,36.4762,-93.7342
Holland,AR,35.166,-92.277
Holly Grove,AR,34.6003,-91.1963
Hope,AR,33.6682,-93.5895
Horatio,AR,33.941,-94.3554
Horseshoe Bend,AR,36.2217,-91.7396
Horseshoe Lake,AR,34.9136,-90.3079
Hot Springs,AR,34.4892,-93.0501
Hot Springs Village,AR,34.6568,-92.9644
Houston,AR,35.0349,-92.6945
Hoxie,AR,36.036,-90.9736
Hughes,AR,34.9483,-90.4707
Humnoke,AR,34.5422,-91.7596
Humphrey,AR,34.4224,-91.7025
Hunter,AR,35.0546,-91.1227
Huntington,AR,35.0813,-94.2665
Huntsville,AR,36.0985,-93.7363
Huttig,AR,33.0418,-92.1818
Imboden,AR,36.2021,-91.1823
Jacksonport,AR,35.6422,-91.3079
Jacksonville,AR,34.8807,-92.1302
Jasper,AR,36.0125,-93.1874
Jennette,AR,35.1639,-90.4092
Jericho,AR,35.2856,-90.2293
Jerome,AR,33.3988,-91.4697
Johnson,AR,36.1328,-94.1757
Joiner,AR,35.5056,-90.15
Jonesboro,AR,35.8212,-90.6791
Judsonia,AR,35.277,-91.6411
Junction City,AR,33.022,-92.7236
Keiser,AR,35.674,-90.0958
Kensett,AR,35.2354,-91.6706
Keo,AR,34.6088,-92.0104
Kibler,AR,35.4265,-94.2368
Kingsland,AR,33.8658,-92.2911
Kirby,AR,34.2556,-93.6522
Knobel,AR,36.32,-90.6022
Knoxville,AR,35.378,-93.3632
Lafe,AR,36.2092,-90.5043
LaGrange,AR,34.6554,-90.735
Lake City,AR,35.8202,-90.4546
Lake Hamilton,AR,34.4269,-93.0887
Lake Village,AR,33.3299,-91.2847
Lakeview,AR,36.3739,-92.5387
Lamar,AR,35.4436,-93.3951
Landmark,AR,34.607,-92.3206
Lavaca,AR,35.3341,-94.1799
Leachville,AR,35.9042,-90.2622
Lead Hill,AR,36.4128,-92.9068
Leola,AR,34.1701,-92.5914
Lepanto,AR,35.6085,-90.333
Leslie,AR,35.8294,-92.5563
Letona,AR,35.3635,-91.8296
Lewisville,AR,33.3643,-93.5751
Lexa,AR,34.5982,-90.7519
Lincoln,AR,35.949,-94.4174
Little Flock,AR,36.3854,-94.1364
Little Rock,AR,34.7256,-92.3576
Lockesburg,AR,33.9716,-94.1761
London,AR,35.328,-93.2417
Lonoke,AR,34.7908,-91.9069
Lonsdale,AR,34.545,-92.8106
Lost Bridge Village,AR,36.3898,-93.9156
Louann,AR,33.3915,-92.7923
Lowell,AR,36.2561,-94.1532
Luxora,AR,35.7576,-89.9298
Lynn,AR,36.0042,-91.252
Madison,AR,35.0188,-90.7299
Magazine,AR,35.1534,-93.8078
Magness,AR,35.703,-91.4821
Magnet Cove,AR,34.4492,-92.8379
Magnolia,AR,33.2774,-93.2261
Malvern,AR,34.3734,-92.8205
Mammoth Spring,AR,36.4924,-91.5413
Manila,AR,35.8848,-90.1653
Mansfield,AR,35.0634,-94.2375
Marianna,AR,34.7736,-90.7674
Marie,AR,35.613,-90.0829
Marion,AR,35.2041,-90.2061
Marked Tree,AR,35.5251,-90.4251
Marmaduke,AR,36.1901,-90.3851
Marshall,AR,35.9083,-92.6459
Marvell,AR,34.5563,-90.9153
Maumelle,AR,34.8522,-92.4
Mayflower,AR,34.9686,-92.4225
Maynard,AR,36.4214,-90.9018
Maysville,AR,36.4019,-94.5889
McAlmont,AR,34.7926,-92.1959
McCaskill,AR,33.9187,-93.6416
McCrory,AR,35.2572,-91.1974
McDougal,AR,36.4365,-90.3907
McGehee,AR,33.628,-91.3953
McNab,AR,33.6609,-93.8323
McNeil,AR,33.3479,-93.2083
McRae,AR,35.1119,-91.8253
Melbourne,AR,36.0638,-91.8819
Mena,AR,34.5812,-94.2369
Menifee,AR,35.1493,-92.5544
Midland,AR,35.0927,-94.3531
Midway,AR,36.3916,-92.4724
Mineral Springs,AR,33.8767,-93.9218
Minturn,AR,35.9766,-91.0272
Mitchellville,AR,33.9053,-91.4983
Monette,AR,35.8931,-90.3442
Monticello,AR,33.6258,-91.7934
Montrose,AR,33.2989,-91.4965
Moorefield,AR,35.7672,-91.5708
Moro,AR,34.7919,-90.988
Morrilton,AR,35.1558,-92.7387
Morrison Bluff,AR,35.3828,-93.5228
Mount Ida,AR,34.5509,-93.6309
Mount Pleasant,AR,35.9818,-91.7771
Mount Vernon,AR,35.2236,-92.124
Mountain Home,AR,36.3348,-92.3846
Mountain Pine,AR,34.5693,-93.1726
Mountain View,AR,35.8635,-92.1041
Mountainburg,AR,35.6361,-94.1679
Mulberry,AR,35.5102,-94.0734
Murfreesboro,AR,34.0546,-93.6834
Nashville,AR,33.9418,-93.8516
Natural Steps,AR,34.8669,-92.4881
New Blaine,AR,35.2929,-93.4202
New Edinburg,AR,33.7565,-92.2401
Newark,AR,35.7083,-91.4432
Newport,AR,35.6234,-91.2322
Nimmons,AR,36.3062,-90.0951
Norfork,AR,36.2099,-92.2801
Norman,AR,34.4584,-93.6791
Norphlet,AR,33.3199,-92.662
North Crossett,AR,33.171,-91.9367
North Little Rock,AR,34.7808,-92.2371
O'Kean,AR,36.1715,-90.8183
Oak Grove,AR,36.4642,-93.4302
Oak Grove Heights,AR,36.1271,-90.5085
Oakhaven,AR,33.7294,-93.6209
Oden,AR,34.6215,-93.7862
Ogden,AR,33.5859,-94.0469
Oil Trough,AR,35.6292,-91.4612
Okolona,AR,34.0005,-93.3376
Ola,AR,35.031,-93.2244
Omaha,AR,36.4583,-93.191
Oppelo,AR,35.1003,-92.7733
Osceola,AR,35.6942,-89.9934
Oxford,AR,36.2092,-91.919
Ozan,AR,33.848,-93.7203
Ozark,AR,35.4995,-93.8431
Palestine,AR,34.9689,-90.9062
Pangburn,AR,35.4261,-91.8394
Paragould,AR,36.0555,-90.5149
Paris,AR,35.2894,-93.7253
Parkdale,AR,33.1212,-91.5464
Parkin,AR,35.2629,-90.553
Patmos,AR,33.5112,-93.5679
Patterson,AR,35.259,-91.2349
Pea Ridge,AR,36.449,-94.1211
Peach Orchard,AR,36.2812,-90.6608
Perla,AR,34.3647,-92.7762
Perry,AR,35.0458,-92.7948
Perrytown,AR,33.6973,-93.5342
Perryville,AR,35.012,-92.803
Piggott,AR,36.3858,-90.2017
Pindall,AR,36.0637,-92.8622
Pine Bluff,AR,34.2116,-92.0178
Pineville,AR,36.1612,-92.1065
Piney,AR,34.5024,-93.142
Plainview,AR,34.9899,-93.2979
Pleasant Plains,AR,35.5545,-91.6274
Plumerville,AR,35.16,-92.6424
Pocahontas,AR,36.2637,-90.9706
Pollard,AR,36.4296,-90.267
Portia,AR,36.0849,-91.0711
Portland,AR,33.2379,-91.511
Pottsville,AR,35.2314,-93.0652
Powhatan,AR,36.0841,-91.1202
Poyen,AR,34.3243,-92.642
Prairie Creek,AR,36.34,-94.0613
Prairie Grove,AR,35.9858,-94.3048
Prattsville,AR,34.3172,-92.5429
Prescott,AR,33.8056,-93.3909
Pyatt,AR,36.2509,-92.8443
Quitman,AR,35.382,-92.2142
Ratcliff,AR,35.3066,-93.8887
Ravenden,AR,36.2417,-91.2511
Ravenden Springs,AR,36.3127,-91.2233
Reader,AR,33.7518,-93.1009
Rector,AR,36.2642,-90.2935
Redfield,AR,34.4429,-92.1843
Reed,AR,33.7017,-91.4458
Reyno,AR,36.3609,-90.759
Rison,AR,33.96,-92.1937
Rockport,AR,34.4069,-92.8078
Rockwell,AR,34.4641,-93.1341
Roe,AR,34.6311,-91.386
Rogers,AR,36.3172,-94.1526
Roland,AR,34.9005,-92.5186
Rondo,AR,34.6575,-90.8208
Rose Bud,AR,35.3249,-92.0811
Rosston,AR,33.5877,-93.2798
Rudy,AR,35.5285,-94.241
Russell,AR,35.3621,-91.5101
Russellville,AR,35.2763,-93.1383
Rye,AR,33.7505,-91.9985
Salem,AR,34.631,-92.5608
Salesville,AR,36.241,-92.2769
Scott,AR,34.6966,-92.0938
Scranton,AR,35.3606,-93.5394
Searcy,AR,35.2418,-91.7351
Sedgwick,AR,35.9753,-90.8678
Shannon Hills,AR,34.6157,-92.4217
Sheridan,AR,34.2995,-92.4226
Sherrill,AR,34.385,-91.9517
Sherwood,AR,34.8508,-92.2028
Shirley,AR,35.6442,-92.3137
Sidney,AR,36.0044,-91.6583
Siloam Springs,AR,36.1844,-94.5318
Smackover,AR,33.3636,-92.7314
Smithville,AR,36.0799,-91.3027
South Lead Hill,AR,36.3948,-92.9057
Southside,AR,35.7149,-91.6329
Sparkman,AR,33.9171,-92.85
Springdale,AR,36.1899,-94.1574
Springtown,AR,36.2605,-94.4241
St. Charles,AR,34.3732,-91.1373
St. Francis,AR,36.4556,-90.1428
St. Joe,AR,36.029,-92.8078
St. Paul,AR,35.8245,-93.7642
Stamps,AR,33.3567,-93.4956
Star City,AR,33.9408,-91.84
Staves,AR,34.031,-92.278
Stephens,AR,33.4221,-93.067
Strawberry,AR,35.9665,-91.3211
Strong,AR,33.1079,-92.3598
Stuttgart,AR,34.495,-91.5485
Subiaco,AR,35.2982,-93.6385
Success,AR,36.4545,-90.7226
Sulphur Rock,AR,35.7516,-91.5003
Sulphur Springs,AR,34.1708,-92.1299
Summit,AR,36.2522,-92.6883
Sunset,AR,35.224,-90.2057
Sweet Home,AR,34.6707,-92.2465
Swifton,AR,35.8245,-91.1294
Taylor,AR,33.0998,-93.4618
Texarkana,AR,33.4361,-93.996
Thornton,AR,33.7756,-92.4889
Tillar,AR,33.7109,-91.4517
Tinsman,AR,33.6291,-92.3533
Tollette,AR,33.8182,-93.8969
Tontitown,AR,36.1642,-94.2457
Traskwood,AR,34.4533,-92.6642
Trumann,AR,35.6771,-90.5261
Tuckerman,AR,35.724,-91.2025
Tull,AR,34.441,-92.5779
Tumbling Shoals,AR,35.5479,-91.9688
Tupelo,AR,35.391,-91.2298
Turrell,AR,35.3763,-90.2704
Twin Groves,AR,35.3187,-92.4253
Tyronza,AR,35.4868,-90.3559
Ulm,AR,34.5762,-91.4617
Valley Springs,AR,36.1537,-92.9896
Van Buren,AR,35.448,-94.3528
Vandervoort,AR,34.38,-94.3641
Victoria,AR,35.7574,-90.0602
Vilonia,AR,35.0807,-92.2088
Viola,AR,36.3968,-91.9863
Wabbaseka,AR,34.3591,-91.7926
Waldenburg,AR,35.5653,-90.9346
Waldo,AR,33.3528,-93.2949
Waldron,AR,34.902,-94.0953
Walnut Ridge,AR,36.0851,-90.9463
Ward,AR,35.0117,-91.9577
Warren,AR,33.6113,-92.0677
Washington,AR,33.773,-93.6833
Watson,AR,33.8939,-91.2572
Weiner,AR,35.6197,-90.9054
Weldon,AR,35.4481,-91.2315
West Crossett,AR,33.1488,-92.0221
West Fork,AR,35.9357,-94.1799
West Memphis,AR,35.1531,-90.1995
West Point,AR,35.2034,-91.6099
Western Grove,AR,36.1011,-92.9546
Wheatley,AR,34.9211,-91.1063
Whelen Springs,AR,33.8331,-93.1259
White Hall,AR,34.2737,-92.1005
Wickes,AR,34.2988,-94.3331
Widener,AR,35.0233,-90.6817
Wiederkehr Village,AR,35.4813,-93.7578
Williford,AR,36.2517,-91.3604
Willisville,AR,33.5194,-93.2949
Wilmar,AR,33.6264,-91.9294
Wilmot,AR,33.0588,-91.5749
Wilson,AR,35.5661,-90.043
Wilton,AR,33.7388,-94.148
Winchester,AR,33.7741,-91.4737
Winslow,AR,35.8008,-94.1305
Winthrop,AR,33.8308,-94.3542
Woodlawn,AR,33.9668,-92.0452
Woodson,AR,34.538,-92.2212
Wooster,AR,35.1998,-92.4503
Wrightsville,AR,34.6109,-92.2136
Wynne,AR,35.2322,-90.7894
Yarborough Landing,AR,33.7126,-94.0108
Yellville,AR,36.2289,-92.686
Zinc,AR,36.2836,-92.9147
Aguila,AZ,33.9376,-113.1665
Ajo,AZ,32.3923,-112.8839
Ak-Chin Village,AZ,33.0197,-112.0808
Alamo Lake,AZ,34.2588,-113.5079
Ali Chuk,AZ,31.8169,-112.5584
Ali Chukson,AZ,31.9115,-111.8016
Ali Molina,AZ,31.9025,-111.7805
Alpine,AZ,33.846,-109.1431
Amado,AZ,31.6968,-111.0583
Anegam,AZ,32.3742,-112.035
Antares,AZ,35.4229,-113.8083
Anthem,AZ,33.856,-112.1168
Apache Junction,AZ,33.3985,-111.5351
Arivaca,AZ,31.575,-111.2926
Arivaca Junction,AZ,31.739,-111.0738
Arizona City,AZ,32.7506,-111.6707
Arizona Village,AZ,34.8548,-114.5893
Arlington,AZ,33.3346,-112.7747
Ash Fork,AZ,35.2172,-112.4912
Avenue B and C,AZ,32.7192,-114.6599
Avondale,AZ,33.3858,-112.3236
Avra Valley,AZ,32.4195,-111.3393
Bagdad,AZ,34.5771,-113.1771
Beaver Dam,AZ,36.9071,-113.9363
Beaver Valley,AZ,34.3409,-111.2987
Benson,AZ,31.9157,-110.3257
Beyerville,AZ,31.3921,-110.8748
Bisbee,AZ,31.4126,-109.9179
Bitter Springs,AZ,36.6118,-111.6475
Black Canyon City,AZ,34.0709,-112.122
Blackwater,AZ,33.0396,-111.5798
Bluewater,AZ,34.1681,-114.2667
Bouse,AZ,33.8984,-113.9962
Bowie,AZ,32.3247,-109.4843
Brenda,AZ,33.6721,-113.9379
Bryce,AZ,32.9258,-109.8229
Buckeye,AZ,33.4314,-112.6429
Buckshot,AZ,32.7404,-114.4829
Bullhead City,AZ,35.1205,-114.546
Burnside,AZ,35.7534,-109.6247
Bylas,AZ,33.1292,-110.1163
Cactus Flats,AZ,32.7642,-109.7205
Cactus Forest,AZ,32.9578,-111.317
Cameron,AZ,35.8537,-111.4269
Camp Verde,AZ,34.5699,-111.8573
Campo Bonito,AZ,32.5629,-110.6984
Cane Beds,AZ,36.9342,-112.9118
Canyon Day,AZ,33.7826,-110.0328
Carefree,AZ,33.8234,-111.9161
Carrizo,AZ,33.9867,-110.3314
Casa Blanca,AZ,33.1154,-111.9081
Casa Grande,AZ,32.9068,-111.7624
Casas Adobes,AZ,32.3423,-111.0114
Catalina,AZ,32.4848,-110.8998
Catalina Foothills,AZ,32.3041,-110.8835
Cave Creek,AZ,33.8513,-111.9801
Cedar Creek,AZ,33.903,-110.1929
Centennial Park,AZ,36.9538,-112.9813
Central,AZ,32.8692,-109.7908
Central Heights-Midland City,AZ,33.4,-110.8153
Chandler,AZ,33.2826,-111.8516
Charco,AZ,32.2474,-112.6001
Chilchinbito,AZ,36.5027,-110.0512
Chinle,AZ,36.1504,-109.5794
Chino Valley,AZ,34.7593,-112.4107
Chloride,AZ,35.4097,-114.1973
Christopher Creek,AZ,34.3206,-111.0072
Chuichu,AZ,32.7403,-111.7821
Cibecue,AZ,34.0333,-110.4854
Cibola,AZ,33.3733,-114.6792
Cienega Springs,AZ,34.2008,-114.2089
Citrus Park,AZ,33.5304,-112.444
Clacks Canyon,AZ,35.2203,-114.0723
Clarkdale,AZ,34.7503,-112.055
Clay Springs,AZ,34.3592,-110.3043
Claypool,AZ,33.406,-110.8421
Clifton,AZ,33.0249,-109.2883
Colorado City,AZ,36.9774,-112.983
Comobabi,AZ,32.0538,-111.8029
Concho,AZ,34.4744,-109.6102
Congress,AZ,34.1526,-112.8642
Coolidge,AZ,32.9395,-111.5261
Cordes Lakes,AZ,34.3103,-112.1073
Cornfields,AZ,35.6515,-109.6756
Cornville,AZ,34.7389,-111.9086
Corona de Tucson,AZ,31.9495,-110.7836
Cottonwood,AZ,34.7192,-112.0014
Cowlic,AZ,31.8048,-111.9877
Crozier,AZ,35.4227,-113.6486
Crystal Beach,AZ,34.5714,-114.3926
Dateland,AZ,32.8212,-113.5417
Deer Creek,AZ,34.0644,-111.3505
Del Muerto,AZ,36.187,-109.4348
Dennehotso,AZ,36.8209,-109.879
Desert Hills,AZ,34.5506,-114.3754
Dewey-Humboldt,AZ,34.5175,-112.2498
Dilkon,AZ,35.3606,-110.3155
Dolan Springs,AZ,35.5905,-114.2852
Doney Park,AZ,35.2687,-111.5053
Donovan Estates,AZ,32.7094,-114.6782
Douglas,AZ,31.3602,-109.5394
Dragoon,AZ,32.0263,-110.0365
Drexel Heights,AZ,32.1457,-111.0478
Dripping Springs,AZ,33.105,-110.7551
Drysdale,AZ,32.6452,-114.7067
Dudleyville,AZ,32.9128,-110.7345
Duncan,AZ,32.7344,-109.0972
Eagar,AZ,34.1058,-109.2956
East Fork,AZ,33.8081,-109.9227
East Globe,AZ,33.3511,-110.7061
East Verde Estates,AZ,34.2983,-111.3645
Ehrenberg,AZ,33.6174,-114.4883
El Capitan,AZ,33.2383,-110.7833
El Mirage,AZ,33.5905,-112.3271
El Prado Estates,AZ,32.7062,-114.5215
Elephant Head,AZ,31.7659,-110.9921
Elfrida,AZ,31.6858,-109.6896
Elgin,AZ,31.668,-110.5347
Eloy,AZ,32.747,-111.5991
First Mesa,AZ,35.8389,-110.3665
Flagstaff,AZ,35.1872,-111.6195
Florence,AZ,33.059,-111.4208
Flowing Springs,AZ,34.3131,-111.3379
Flowing Wells,AZ,32.2937,-111.011
Fort Apache,AZ,33.7907,-109.9873
Fort Defiance,AZ,35.7469,-109.0685
Fort Mohave,AZ,35.0004,-114.5748
Fort Thomas,AZ,33.0222,-109.9665
Fort Valley,AZ,35.2554,-111.7253
Fortuna Foothills,AZ,32.6616,-114.3973
Fountain Hills,AZ,33.6073,-111.7398
Franklin,AZ,32.677,-109.072
Fredonia,AZ,36.9617,-112.5195
Freedom Acres,AZ,34.3199,-111.3051
Gadsden,AZ,32.5564,-114.781
Ganado,AZ,35.7016,-109.5504
Gila Bend,AZ,32.9662,-112.7155
Gila Crossing,AZ,33.273,-112.1627
Gilbert,AZ,33.3101,-111.7463
Gisela,AZ,34.1015,-111.2895
Glendale,AZ,33.5791,-112.2311
Globe,AZ,33.3869,-110.7515
Gold Canyon,AZ,33.3715,-111.4369
Golden Shores,AZ,34.7819,-114.4777
Golden Valley,AZ,35.206,-114.2327
Goodyear,AZ,33.2613,-112.3622
Goodyear Village,AZ,33.1973,-111.8724
Grand Canyon Village,AZ,36.0492,-112.1566
Greasewood,AZ,35.5279,-109.8614
Green Valley,AZ,31.8436,-111.0174
Greer,AZ,34.0054,-109.4611
Gu Oidak,AZ,31.9206,-112.0233
Guadalupe,AZ,33.3664,-111.9633
Hackberry,AZ,35.3401,-113.7256
Haigler Creek,AZ,34.2163,-110.9719
Haivana Nakya,AZ,32.0051,-111.7124
Hard Rock,AZ,36.0309,-110.5048
Hayden,AZ,32.9995,-110.7814
Heber-Overgaard,AZ,34.4141,-110.5696
Holbrook,AZ,34.9044,-110.1672
Hondah,AZ,34.086,-109.915
Hotevilla-Bacavi,AZ,35.9225,-110.6569
Houck,AZ,35.2714,-109.2236
Huachuca City,AZ,31.6308,-110.3422
Hunter Creek,AZ,34.3054,-111.0159
Icehouse Canyon,AZ,33.3553,-110.7965
Indian Wells,AZ,35.4089,-110.1061
Jakes Corner,AZ,34.0083,-111.3202
Jeddito,AZ,35.7697,-110.1305
Jerome,AZ,34.7466,-112.1072
Joseph City,AZ,34.9614,-110.3274
Kachina Village,AZ,35.0949,-111.6927
Kaibab,AZ,36.8815,-112.7237
Kaibito,AZ,36.592,-111.1071
Kaka,AZ,32.5113,-112.3167
Katherine,AZ,35.2206,-114.5615
Kayenta,AZ,36.7144,-110.2589
Keams Canyon,AZ,35.8229,-110.2011
Kearny,AZ,33.0564,-110.9074
Kingman,AZ,35.217,-114.0105
Kino Springs,AZ,31.3642,-110.8096
Klagetoh,AZ,35.5011,-109.5283
Ko Vaya,AZ,32.0815,-111.8959
Kohls Ranch,AZ,34.321,-111.0838
Komatke,AZ,33.2953,-112.1615
Kykotsmovi Village,AZ,35.8576,-110.6338
La Paz Valley,AZ,33.5582,-114.2434
Lake Havasu City,AZ,34.5006,-114.3113
Lake Montezuma,AZ,34.6414,-111.796
Lake of the Woods,AZ,34.1547,-109.9936
Lazy Y U,AZ,35.1369,-113.9684
LeChee,AZ,36.871,-111.4328
Leupp,AZ,35.2966,-111.0027
Linden,AZ,34.2625,-110.1424
Litchfield Park,AZ,33.5024,-112.3586
Littlefield,AZ,36.8663,-113.9358
Low Mountain,AZ,35.9481,-110.0981
Lower Santan Village,AZ,33.1427,-111.7853
Lukachukai,AZ,36.4112,-109.2267
Lupton,AZ,35.3548,-109.0528
Maish Vaya,AZ,32.1703,-112.1342
Mammoth,AZ,32.6853,-110.7292
Many Farms,AZ,36.3532,-109.6271
Marana,AZ,32.4355,-111.1558
Maricopa,AZ,33.0404,-112.0006
Maricopa Colony,AZ,33.3626,-112.2268
Martinez Lake,AZ,32.9843,-114.4722
Mayer,AZ,34.4233,-112.2408
McNary,AZ,34.0923,-109.8541
McNeal,AZ,31.6079,-109.6699
Meadview,AZ,35.9531,-114.0789
Mesa,AZ,33.4017,-111.718
Mesa del Caballo,AZ,34.286,-111.2952
Mescal,AZ,31.9675,-110.4368
Mesquite Creek,AZ,34.9606,-114.5714
Miami,AZ,33.3951,-110.8721
Miracle Valley,AZ,31.3829,-110.1484
Moccasin,AZ,36.9099,-112.7546
Moenkopi,AZ,36.1124,-111.2212
Mohave Valley,AZ,34.9008,-114.5732
Mojave Ranch Estates,AZ,34.9449,-114.5907
Morenci,AZ,33.0531,-109.3307
Morristown,AZ,33.8548,-112.6135
Mountainaire,AZ,35.0921,-111.6493
Munds Park,AZ,34.9382,-111.6318
Naco,AZ,31.3431,-109.9336
Nazlini,AZ,35.9155,-109.4726
Nelson,AZ,32.4298,-111.2649
New Kingman-Butler,AZ,35.2645,-114.0091
New River,AZ,33.8835,-112.0858
Nogales,AZ,31.3624,-110.9336
Nolic,AZ,32.0341,-111.955
North Fork,AZ,33.9965,-109.9593
Nutrioso,AZ,33.9515,-109.2058
Oak Springs,AZ,35.476,-109.1318
Oljato-Monument Valley,AZ,36.9867,-110.191
Oracle,AZ,32.6085,-110.7826
Oro Valley,AZ,32.4208,-110.9768
Oxbow Estates,AZ,34.1824,-111.343
Padre Ranchitos,AZ,32.6497,-114.6416
Page,AZ,36.9426,-111.5071
Palominas,AZ,31.3838,-110.1212
Paradise Valley,AZ,33.5434,-111.9595
Parker,AZ,34.0286,-114.2224
Parker Strip,AZ,34.2803,-114.1269
Parks,AZ,35.2939,-111.9771
Patagonia,AZ,31.5436,-110.7477
Paulden,AZ,34.8899,-112.4938
Payson,AZ,34.2434,-111.3195
Peach Springs,AZ,35.5315,-113.4319
Peeples Valley,AZ,34.2773,-112.7654
Peoria,AZ,33.7844,-112.2989
Peridot,AZ,33.3015,-110.4554
Phoenix,AZ,33.5722,-112.0891
Picacho,AZ,32.709,-111.4908
Picture Rocks,AZ,32.3274,-111.2557
Pima,AZ,32.8886,-109.8437
Pimaco Two,AZ,31.9666,-110.4664
Pinal,AZ,33.3799,-110.7571
Pine,AZ,34.3788,-111.4574
Pine Lake,AZ,35.0887,-113.8739
Pinedale,AZ,34.3208,-110.2599
Pinetop Country Club,AZ,34.1163,-109.8909
Pinetop-Lakeside,AZ,34.1486,-109.9658
Pinion Pines,AZ,35.1466,-113.9058
Pinon,AZ,36.0992,-110.2209
Pirtleville,AZ,31.3613,-109.5661
Pisinemo,AZ,32.0349,-112.3192
Poston,AZ,33.9921,-114.4046
Prescott,AZ,34.585,-112.4475
Prescott Valley,AZ,34.5983,-112.3176
Quartzsite,AZ,33.6675,-114.217
Queen Creek,AZ,33.2386,-111.6343
Queen Valley,AZ,33.283,-111.305
Rainbow City,AZ,33.8731,-109.9763
Rancho Mesa Verde,AZ,32.5944,-114.6551
Red Mesa,AZ,36.9664,-109.3828
Red Rock,AZ,32.561,-111.3745
Rincon Valley,AZ,32.1101,-110.6889
Rio Rico,AZ,31.4957,-110.9886
Rio Verde,AZ,33.7278,-111.674
Rock House,AZ,33.6318,-110.9456
Rock Point,AZ,36.7173,-109.6287
Roosevelt,AZ,33.6618,-111.1295
Rough Rock,AZ,36.4106,-109.8691
Round Rock,AZ,36.5044,-109.4616
Round Valley,AZ,34.1877,-111.3018
Rye,AZ,34.0978,-111.3543
Sacate Village,AZ,33.1416,-111.9811
Sacaton,AZ,33.0793,-111.7683
Sacaton Flats Village,AZ,33.0559,-111.659
Saddlebrooke,AZ,32.5385,-110.8582
Safford,AZ,32.8317,-109.7005
Sahuarita,AZ,31.9323,-110.9654
Salome,AZ,33.7778,-113.6061
San Carlos,AZ,33.35,-110.4654
San Jose,AZ,32.8169,-109.5957
San Luis,AZ,32.4911,-114.7089
San Manuel,AZ,32.6091,-110.6415
San Miguel,AZ,31.6295,-111.7801
San Simon,AZ,32.268,-109.2308
San Tan Valley,AZ,33.1879,-111.5472
Sanders,AZ,35.2095,-109.3224
Santa Rosa,AZ,32.3326,-112.0464
Sawmill,AZ,35.8924,-109.1538
Scenic,AZ,36.7931,-114.0151
Scottsdale,AZ,33.6872,-111.8651
Seba Dalkai,AZ,35.4816,-110.4562
Second Mesa,AZ,35.8222,-110.4884
Sedona,AZ,34.8574,-111.7951
Sehili,AZ,36.2807,-109.1814
Seligman,AZ,35.3256,-112.8573
Sells,AZ,31.9202,-111.8775
Seven Mile,AZ,33.7882,-109.9576
Shongopovi,AZ,35.8195,-110.5331
Shonto,AZ,36.5893,-110.6607
Show Low,AZ,34.2671,-110.0384
Sierra Vista,AZ,31.563,-110.3153
Sierra Vista Southeast,AZ,31.4525,-110.216
Six Shooter Canyon,AZ,33.3568,-110.772
Snowflake,AZ,34.5225,-110.0913
So-Hi,AZ,35.2527,-114.1416
Solomon,AZ,32.8137,-109.6289
Somerton,AZ,32.6009,-114.699
Sonoita,AZ,31.6645,-110.6426
South Komelik,AZ,31.7144,-111.7744
South Tucson,AZ,32.1955,-110.9692
Spring Valley,AZ,34.3531,-112.1513
Springerville,AZ,34.156,-109.2989
St. David,AZ,31.8992,-110.2251
St. Johns,AZ,34.5018,-109.3784
St. Michaels,AZ,35.6606,-109.0962
Stanfield,AZ,32.8794,-111.9636
Star Valley,AZ,34.2611,-111.2197
Steamboat,AZ,35.7535,-109.8504
Stotonic Village,AZ,33.1528,-111.8167
Strawberry,AZ,34.4018,-111.5002
Summerhaven,AZ,32.4416,-110.7766
Summit,AZ,32.0619,-110.9483
Sun City,AZ,33.6165,-112.2819
Sun City West,AZ,33.6693,-112.3575
Sun Lakes,AZ,33.2172,-111.8695
Sun Valley,AZ,34.9835,-110.0374
Sunizona,AZ,31.8841,-109.6328
Sunwest,AZ,33.651,-113.4091
Supai,AZ,36.2299,-112.6926
Superior,AZ,33.2851,-111.1109
Surprise,AZ,33.68,-112.4524
Sweet Water Village,AZ,33.1274,-111.8424
Swift Trail Junction,AZ,32.7305,-109.7147
Tacna,AZ,32.7004,-113.9618
Tanque Verde,AZ,32.2687,-110.7437
Tat Momoli,AZ,32.6013,-111.8862
Taylor,AZ,34.4393,-110.1018
Teec Nos Pos,AZ,36.9221,-109.0753
Tees Toh,AZ,35.4849,-110.3989
Tempe,AZ,33.3881,-111.9318
Thatcher,AZ,32.832,-109.7595
Theba,AZ,32.9182,-112.8899
Three Points,AZ,32.0596,-111.2866
Tolani Lake,AZ,35.4309,-110.8431
Tolleson,AZ,33.4484,-112.2561
Tombstone,AZ,31.7234,-110.0798
Tonalea,AZ,36.3218,-110.9667
Tonopah,AZ,33.488,-112.9308
Tonto Basin,AZ,33.8361,-111.3003
Tonto Village,AZ,34.3198,-111.1394
Top-of-the-World,AZ,33.3477,-110.9997
Topawa,AZ,31.8078,-111.8305
Topock,AZ,34.7206,-114.478
Truxton,AZ,35.487,-113.5607
Tsaile,AZ,36.3033,-109.2157
Tuba City,AZ,36.125,-111.2468
Tubac,AZ,31.6111,-111.0585
Tucson,AZ,32.1545,-110.8782
Tucson Estates,AZ,32.1792,-111.1254
Tumacacori-Carmen,AZ,31.5771,-111.0469
Turkey Creek,AZ,33.8011,-109.9461
Tusayan,AZ,35.955,-112.1202
Upper Santan Village,AZ,33.1152,-111.7418
Utting,AZ,33.8544,-113.9129
Vail,AZ,32.0217,-110.6937
Valencia West,AZ,32.1355,-111.1123
Valentine,AZ,35.3886,-113.6591
Valle,AZ,35.6245,-112.135
Valle Vista,AZ,35.4109,-113.8627
Ventana,AZ,32.4681,-112.2434
Verde Village,AZ,34.7122,-111.9943
Vernon,AZ,34.2509,-109.6926
Vicksburg,AZ,33.7293,-113.8254
Village of Oak Creek,AZ,34.7813,-111.7606
Wagon Wheel,AZ,34.1976,-110.0273
Wahak Hotrontk,AZ,32.1748,-112.3663
Wall Lane,AZ,32.6573,-114.7105
Walnut Creek,AZ,35.1312,-114.1267
Washington Park,AZ,34.3978,-111.2731
Wellton,AZ,32.64,-114.214
Wellton Hills,AZ,32.6232,-114.1453
Wenden,AZ,33.8324,-113.5433
Wet Camp Village,AZ,33.1413,-111.9004
Wheatfields,AZ,33.4805,-110.8366
Whetstone,AZ,31.7011,-110.3398
Whispering Pines,AZ,34.3728,-111.2813
White Hills,AZ,35.7242,-114.4004
White Mountain Lake,AZ,34.3441,-109.9879
Whitecone,AZ,35.6037,-110.0791
Whiteriver,AZ,33.8358,-109.9616
Why,AZ,32.259,-112.7307
Wickenburg,AZ,33.9837,-112.7668
Wide Ruins,AZ,35.4175,-109.4995
Wikieup,AZ,34.6931,-113.5995
Wilhoit,AZ,34.4083,-112.6156
Willcox,AZ,32.2514,-109.8359
Williams,AZ,35.2476,-112.1833
Williamson,AZ,34.7082,-112.5342
Willow Valley,AZ,34.9296,-114.6159
Window Rock,AZ,35.6705,-109.0639
Winkelman,AZ,32.9853,-110.7651
Winslow,AZ,35.0253,-110.7098
Winslow West,AZ,34.9923,-110.7069
Wintersburg,AZ,33.4187,-112.8666
Wittmann,AZ,33.7749,-112.5251
Woodruff,AZ,34.7843,-110.0366
Yarnell,AZ,34.2283,-112.7631
York,AZ,32.9175,-109.196
Young,AZ,34.1189,-110.9559
Youngtown,AZ,33.5846,-112.3047
Yucca,AZ,34.863,-114.1461
Yuma,AZ,32.5992,-114.5488
Acalanes Ridge,CA,37.9046,-122.0786
Acampo,CA,38.1735,-121.2798
Acton,CA,34.4956,-118.1857
Adelanto,CA,34.5815,-117.4397
Adin,CA,41.1964,-120.9494
Agoura Hills,CA,34.151,-118.7608
Agua Dulce,CA,34.5044,-118.316
Aguanga,CA,33.4522,-116.8555
Ahwahnee,CA,37.3652,-119.7194
Airport,CA,37.6324,-120.9774
Alameda,CA,37.767,-122.2672
Alamo,CA,37.8546,-122.013
Albany,CA,37.8898,-122.3018
Albion,CA,39.2256,-123.7564
Alderpoint,CA,40.1614,-123.6157
Alhambra,CA,34.084,-118.1355
Alhambra Valley,CA,37.9665,-122.132
Aliso Viejo,CA,33.5792,-117.7289
Alleghany,CA,39.4666,-120.841
Allendale,CA,38.4426,-121.9814
Allensworth,CA,35.8498,-119.3893
Alondra Park,CA,33.8885,-118.335
Alpaugh,CA,35.8876,-119.4873
Alpine,CA,32.8439,-116.7585
Alpine Village,CA,38.7856,-119.8009
Alta,CA,39.2138,-120.8033
Alta Sierra,CA,39.1237,-121.0523
Altadena,CA,34.1928,-118.1345
Alto,CA,37.9056,-122.5186
Alturas,CA,41.4898,-120.5516
Alum Rock,CA,37.3695,-121.8241
Amador City,CA,38.419,-120.8232
American Canyon,CA,38.1796,-122.2583
Amesti,CA,36.9583,-121.7805
Anaheim,CA,33.839,-117.8572
Anchor Bay,CA,38.8126,-123.5704
Anderson,CA,40.4497,-122.295
Angels,CA,38.0707,-120.5501
Angwin,CA,38.5776,-122.4513
Antelope,CA,38.7153,-121.361
Antioch,CA,37.9789,-121.7958
Anza,CA,33.5679,-116.6967
Apple Valley,CA,34.5328,-117.2104
Aptos,CA,36.9912,-121.8934
Aptos Hills-Larkin Valley,CA,36.9606,-121.8341
Arbuckle,CA,39.0141,-122.061
Arcadia,CA,34.1342,-118.0373
Arcata,CA,40.8615,-124.0757
Arden-Arcade,CA,38.6034,-121.381
Armona,CA,36.3179,-119.7054
Arnold,CA,38.2423,-120.3547
Aromas,CA,36.8771,-121.6404
Arroyo Grande,CA,35.1241,-120.5845
Artesia,CA,33.8676,-118.0806
Artois,CA,39.6332,-122.1898
Arvin,CA,35.1944,-118.8306
Ashland,CA,37.6942,-122.1159
Aspen Springs,CA,37.55,-118.7087
Atascadero,CA,35.4827,-120.6858
Atherton,CA,37.4539,-122.2032
Atwater,CA,37.3543,-120.5981
Auberry,CA,37.0755,-119.4901
Auburn,CA,38.895,-121.0778
Auburn Lake Trails,CA,38.8917,-120.9849
August,CA,37.9797,-121.2625
Avalon,CA,33.3342,-118.3315
Avenal,CA,36.0311,-120.1162
Avery,CA,38.1939,-120.379
Avila Beach,CA,35.1969,-120.7191
Avocado Heights,CA,34.0381,-118.0026
Azusa,CA,34.1386,-117.9124
Baker,CA,35.2769,-116.0718
Bakersfield,CA,35.3529,-119.0359
Baldwin Park,CA,34.0829,-117.9721
Ballard,CA,34.634,-120.1156
Ballico,CA,37.4519,-120.7037
Bangor,CA,39.3761,-121.4117
Banning,CA,33.946,-116.8992
Barstow,CA,34.8661,-117.0472
Bass Lake,CA,37.328,-119.5668
Bay Point,CA,38.0329,-121.9614
Bayview,CA,40.7654,-124.1787
Beale AFB,CA,39.1095,-121.3543
Bear Creek,CA,37.2966,-120.4177
Bear Valley,CA,37.5671,-120.1229
Bear Valley Springs,CA,35.1775,-118.646
Beaumont,CA,33.9076,-116.9766
Beckwourth,CA,39.8485,-120.4111
Bell,CA,33.9801,-118.1798
Bell Canyon,CA,34.2081,-118.6876
Bell Gardens,CA,33.9663,-118.155
Bella Vista,CA,40.6502,-122.245
Bellflower,CA,33.888,-118.1271
Belmont,CA,37.5154,-122.2955
Belvedere,CA,37.8735,-122.4662
Ben Lomond,CA,37.0782,-122.0882
Benbow,CA,40.0603,-123.7654
Bend,CA,40.2561,-122.2095
Benicia,CA,38.0725,-122.1525
Benton,CA,37.8189,-118.4844
Berkeley,CA,37.8723,-122.276
Bermuda Dunes,CA,33.7434,-116.2874
Berry Creek,CA,39.6314,-121.4052
Bertsch-Oceanview,CA,41.7524,-124.1594
Bethel Island,CA,38.0288,-121.6404
Beverly Hills,CA,34.0786,-118.4021
Bieber,CA,41.1251,-121.1336
Big Bear City,CA,34.2536,-116.7903
Big Bear Lake,CA,34.2429,-116.8951
Big Bend,CA,41.0109,-121.924
Big Creek,CA,37.2036,-119.2486
Big Lagoon,CA,41.1592,-124.1303
Big Pine,CA,37.1655,-118.2952
Big River,CA,34.1393,-114.3604
Biggs,CA,39.4102,-121.7133
Biola,CA,36.8006,-120.0199
Bishop,CA,37.3665,-118.3958
Black Point-Green Point,CA,38.112,-122.5191
Blackhawk,CA,37.816,-121.9071
Blacklake,CA,35.0497,-120.5387
Blairsden,CA,39.7752,-120.6109
Bloomfield,CA,38.3183,-122.8502
Bloomington,CA,34.0601,-117.4013
Blue Lake,CA,40.8813,-123.9931
Bluewater,CA,34.176,-114.264
Blythe,CA,33.622,-114.6188
Bodega,CA,38.3488,-122.9712
Bodega Bay,CA,38.325,-123.0308
Bodfish,CA,35.5765,-118.4764
Bolinas,CA,37.9177,-122.7095
Bombay Beach,CA,33.3548,-115.7307
Bonita,CA,32.6652,-117.0295
Bonny Doon,CA,37.0435,-122.1369
Bonsall,CA,33.2761,-117.1942
Boonville,CA,39.0115,-123.374
Bootjack,CA,37.4672,-119.8887
Boron,CA,35.0164,-117.6659
Boronda,CA,36.6947,-121.6745
Borrego Springs,CA,33.241,-116.3571
Bostonia,CA,32.8189,-116.9479
Boulder Creek,CA,37.1341,-122.1271
Boulevard,CA,32.664,-116.2896
Bowles,CA,36.6089,-119.7526
Boyes Hot Springs,CA,38.3126,-122.4888
Bradbury,CA,34.1536,-117.9684
Bradley,CA,35.8628,-120.8042
Brawley,CA,32.9783,-115.5287
Brea,CA,33.9254,-117.8656
Brentwood,CA,37.9355,-121.7191
Bret Harte,CA,37.6021,-121.0045
Bridgeport,CA,38.2562,-119.2123
Brisbane,CA,37.6898,-122.402
Broadmoor,CA,37.6914,-122.4811
Brookdale,CA,37.1058,-122.1106
Brooktrails,CA,39.4429,-123.3963
Buck Meadows,CA,37.8127,-120.0653
Buckhorn,CA,38.4532,-120.5354
Bucks Lake,CA,39.8798,-121.1941
Buellton,CA,34.6152,-120.1943
Buena Park,CA,33.8572,-118.0046
Buena Vista,CA,38.2974,-120.9179
Burbank,CA,34.1879,-118.3235
Burlingame,CA,37.586,-122.3669
Burney,CA,40.8846,-121.6691
Burnt Ranch,CA,40.811,-123.5082
Butte Creek Canyon,CA,39.749,-121.6968
Butte Meadows,CA,40.0871,-121.537
Butte Valley,CA,39.6571,-121.6363
Buttonwillow,CA,35.4092,-119.4406
Byron,CA,37.8756,-121.642
Bystrom,CA,37.6199,-120.9827
C-Road,CA,39.7628,-120.577
Cabazon,CA,33.9127,-116.7828
Calabasas,CA,34.1375,-118.6689
Calexico,CA,32.6849,-115.4944
California City,CA,35.1578,-117.8721
California Hot Springs,CA,35.8863,-118.6561
California Pines,CA,41.4117,-120.6605
Calimesa,CA,33.9874,-117.0542
Calipatria,CA,33.1493,-115.5056
Calistoga,CA,38.5818,-122.5824
Callender,CA,35.048,-120.5759
Calpella,CA,39.2322,-123.197
Calpine,CA,39.6633,-120.4436
Calwa,CA,36.7136,-119.7607
Camanche North Shore,CA,38.2442,-120.9538
Camanche Village,CA,38.2662,-120.9866
Camarillo,CA,34.223,-119.0322
Cambria,CA,35.5523,-121.0847
Cambrian Park,CA,37.2563,-121.9287
Cameron Park,CA,38.6737,-120.9872
Camino,CA,38.7412,-120.6815
Camino Tassajara,CA,37.7909,-121.885
Camp Pendleton North,CA,33.3148,-117.3162
Camp Pendleton South,CA,33.2284,-117.3791
Campbell,CA,37.2802,-121.9538
Campo,CA,32.6394,-116.4745
Camptonville,CA,39.4521,-121.0488
Canby,CA,41.4477,-120.8843
Cantua Creek,CA,36.5001,-120.3164
Canyon Lake,CA,33.6885,-117.2621
Canyondam,CA,40.1699,-121.0769
Capitola,CA,36.9772,-121.9538
Carlsbad,CA,33.1247,-117.2837
Carmel Valley Village,CA,36.4824,-121.7198
Carmel-by-the-Sea,CA,36.5528,-121.9222
Carmichael,CA,38.6337,-121.323
Carnelian Bay,CA,39.2346,-120.0767
Carpinteria,CA,34.3962,-119.5118
Carrick,CA,41.4467,-122.3635
Carson,CA,33.8374,-118.2559
Cartago,CA,36.3123,-118.0261
Caruthers,CA,36.5399,-119.845
Casa Conejo,CA,34.1847,-118.9445
Casa de Oro-Mount Helix,CA,32.764,-116.9687
Casmalia,CA,34.8376,-120.5311
Caspar,CA,39.3631,-123.8044
Cassel,CA,40.9213,-121.5514
Castaic,CA,34.4818,-118.6317
Castle Hill,CA,37.8729,-122.0573
Castro Valley,CA,37.7091,-122.0631
Castroville,CA,36.765,-121.7535
Cathedral City,CA,33.8363,-116.4642
Catheys Valley,CA,37.4371,-120.0936
Cayucos,CA,35.4375,-120.8847
Cazadero,CA,38.5265,-123.0978
Cedar Ridge,CA,38.0661,-120.2737
Cedarville,CA,41.528,-120.1748
Centerville,CA,36.7361,-119.4961
Ceres,CA,37.5953,-120.9625
Cerritos,CA,33.8677,-118.0686
Chalfant,CA,37.5105,-118.375
Challenge-Brownsville,CA,39.4646,-121.2632
Channel Islands Beach,CA,34.1586,-119.2231
Charter Oak,CA,34.1025,-117.8564
Cherokee,CA,39.6514,-121.5344
Cherokee Strip,CA,35.4698,-119.2617
Cherry Valley,CA,33.9797,-116.9694
Cherryland,CA,37.6792,-122.1038
Chester,CA,40.3017,-121.2339
Chico,CA,39.7575,-121.8152
Chilcoot-Vinton,CA,39.8067,-120.1388
China Lake Acres,CA,35.6387,-117.7667
Chinese Camp,CA,37.8703,-120.4443
Chino,CA,33.9836,-117.6654
Chino Hills,CA,33.9508,-117.7253
Chowchilla,CA,37.1095,-120.2349
Chualar,CA,36.5711,-121.5103
Chula Vista,CA,32.6281,-117.0145
Citrus,CA,34.1161,-117.889
Citrus Heights,CA,38.6948,-121.288
Claremont,CA,34.1259,-117.7153
Clarksburg,CA,38.4193,-121.5416
Clay,CA,38.314,-121.1596
Clayton,CA,37.9403,-121.9301
Clear Creek,CA,40.3023,-121.0531
Clearlake,CA,38.959,-122.633
Clearlake Oaks,CA,39.0218,-122.6593
Clearlake Riviera,CA,38.9512,-122.7207
Cleone,CA,39.4927,-123.7812
Clio,CA,39.7487,-120.5725
Clipper Mills,CA,39.5324,-121.1666
Cloverdale,CA,38.7961,-123.0151
Clovis,CA,36.8278,-119.6831
Clyde,CA,38.0253,-122.0278
Coachella,CA,33.6905,-116.143
Coalinga,CA,36.143,-120.3262
Coarsegold,CA,37.2526,-119.7
Cobb,CA,38.8356,-122.723
Coffee Creek,CA,41.0802,-122.7136
Cohasset,CA,39.9022,-121.7453
Cold Springs,CA,38.7468,-120.8761
Coleville,CA,38.5834,-119.516
Colfax,CA,39.0938,-120.9533
College City,CA,39.0063,-122.0068
Collierville,CA,38.2141,-121.2675
Colma,CA,37.6767,-122.4526
Coloma,CA,38.8026,-120.8946
Colton,CA,34.0538,-117.3254
Columbia,CA,38.0333,-120.4097
Colusa,CA,39.2059,-122.0125
Commerce,CA,33.9963,-118.1519
Comptche,CA,39.2651,-123.5896
Compton,CA,33.893,-118.2275
Concord,CA,37.9722,-122.0016
Concow,CA,39.7733,-121.5196
Contra Costa Centre,CA,37.9261,-122.054
Copperopolis,CA,37.9365,-120.6277
Corcoran,CA,36.0839,-119.561
Corning,CA,39.9282,-122.182
Corona,CA,33.8616,-117.5649
Coronado,CA,32.664,-117.16
Coronita,CA,33.876,-117.6109
Corralitos,CA,36.9941,-121.7892
Corte Madera,CA,37.9238,-122.5129
Costa Mesa,CA,33.6667,-117.9135
Cotati,CA,38.3279,-122.7092
Coto de Caza,CA,33.5961,-117.5862
Cottonwood,CA,40.3904,-122.2861
Coulterville,CA,37.7105,-120.1992
Country Club,CA,37.9687,-121.3408
Courtland,CA,38.3329,-121.557
Covelo,CA,39.8025,-123.2499
Covina,CA,34.0903,-117.8817
Cowan,CA,37.5601,-120.9888
Crescent City,CA,41.7727,-124.1902
Crescent Mills,CA,40.1008,-120.9217
Cressey,CA,37.421,-120.6556
Crest,CA,32.8,-116.8671
Crestline,CA,34.2486,-117.289
Creston,CA,35.5173,-120.5211
Crockett,CA,38.0519,-122.2201
Cromberg,CA,39.8684,-120.6904
Crowley Lake,CA,37.5692,-118.7465
Crows Landing,CA,37.3947,-121.0843
Cudahy,CA,33.9631,-118.183
Culver City,CA,34.0058,-118.3968
Cupertino,CA,37.3168,-122.0465
Cutler,CA,36.5263,-119.2884
Cutten,CA,40.7657,-124.1446
Cuyama,CA,34.9312,-119.6148
Cypress,CA,33.8171,-118.0386
Daly City,CA,37.6862,-122.4685
Dana Point,CA,33.4733,-117.6968
Danville,CA,37.8121,-121.9698
Daphnedale Park,CA,41.5089,-120.5507
Darwin,CA,36.2689,-117.589
Davenport,CA,37.0176,-122.1882
Davis,CA,38.5552,-121.7365
Day Valley,CA,37.0255,-121.8559
Deer Park,CA,38.536,-122.4679
Del Aire,CA,33.9168,-118.3693
Del Mar,CA,32.9633,-117.2627
Del Monte Forest,CA,36.5857,-121.9439
Del Rey,CA,36.6562,-119.5993
Del Rey Oaks,CA,36.5929,-121.8381
Del Rio,CA,37.7432,-121.0091
Delano,CA,35.767,-119.2637
Delft Colony,CA,36.512,-119.4465
Delhi,CA,37.4306,-120.7759
Delleker,CA,39.8101,-120.4969
Denair,CA,37.5262,-120.7994
Derby Acres,CA,35.2439,-119.6039
Descanso,CA,32.8696,-116.6279
Desert Center,CA,33.7378,-115.3666
Desert Edge,CA,33.9223,-116.4401
Desert Hot Springs,CA,33.9551,-116.543
Desert Palms,CA,33.779,-116.293
Desert Shores,CA,33.4041,-116.0394
Desert View Highlands,CA,34.5901,-118.1535
Diablo,CA,37.8408,-121.9565
Diablo Grande,CA,37.4006,-121.2699
Diamond Bar,CA,33.9991,-117.8161
Diamond Springs,CA,38.692,-120.8391
Dillon Beach,CA,38.2436,-122.956
Dinuba,CA,36.5453,-119.3987
Discovery Bay,CA,37.9071,-121.6076
Dixon,CA,38.4468,-121.8249
Dixon Lane-Meadow Creek,CA,37.3864,-118.4152
Dobbins,CA,39.3657,-121.2127
Dogtown,CA,38.2096,-121.1551
Dollar Point,CA,39.1905,-120.1089
Dorrington,CA,38.2949,-120.2706
Dorris,CA,41.9644,-121.9205
Dos Palos,CA,36.9854,-120.6336
Dos Palos Y,CA,37.0466,-120.6394
Douglas City,CA,40.6636,-122.9261
Downey,CA,33.9379,-118.1312
Downieville,CA,39.5701,-120.8213
Doyle,CA,40.0275,-120.1172
Drytown,CA,38.4382,-120.8565
Duarte,CA,34.161,-117.9504
Dublin,CA,37.7161,-121.8963
Ducor,CA,35.8943,-119.0456
Dunnigan,CA,38.8926,-121.9741
Dunsmuir,CA,41.2318,-122.2714
Durham,CA,39.6232,-121.7875
Dustin Acres,CA,35.2159,-119.375
Dutch Flat,CA,39.208,-120.8345
Eagleville,CA,41.3191,-120.1147
Earlimart,CA,35.8824,-119.2715
East Foothills,CA,37.3827,-121.8138
East Hemet,CA,33.7301,-116.941
East Los Angeles,CA,34.0326,-118.1691
East Nicolaus,CA,38.91,-121.5443
East Oakdale,CA,37.7854,-120.8007
East Orosi,CA,36.5481,-119.2599
East Palo Alto,CA,37.4671,-122.1352
East Pasadena,CA,34.1377,-118.0776
East Porterville,CA,36.0573,-118.9713
East Quincy,CA,39.9165,-120.9189
East Rancho Dominguez,CA,33.895,-118.1956
East Richmond Heights,CA,37.945,-122.314
East San Gabriel,CA,34.1198,-118.0807
East Shore,CA,40.2451,-121.0768
East Sonora,CA,37.9777,-120.341
East Tulare Villa,CA,36.2035,-119.2821
East Whittier,CA,33.9244,-117.9887
Easton,CA,36.6524,-119.7908
Eastvale,CA,33.9617,-117.5802
Edgewood,CA,41.462,-122.426
Edmundson Acres,CA,35.2273,-118.8233
Edna,CA,35.2108,-120.606
Edwards AFB,CA,34.9045,-117.9295
El Cajon,CA,32.8017,-116.9605
El Centro,CA,32.7867,-115.5586
El Cerrito,CA,37.9197,-122.3025
El Dorado Hills,CA,38.675,-121.049
El Granada,CA,37.5134,-122.466
El Monte,CA,34.0739,-118.0291
El Nido,CA,37.1324,-120.4985
El Paso de Robles,CA,35.6394,-120.656
El Portal,CA,37.6736,-119.799
El Rancho,CA,36.2207,-119.069
El Rio,CA,34.2452,-119.1568
El Segundo,CA,33.9169,-118.4021
El Sobrante,CA,33.8724,-117.4625
El Verano,CA,38.2975,-122.4915
Eldridge,CA,38.3339,-122.5065
Elizabeth Lake,CA,34.659,-118.3783
Elk Creek,CA,39.6002,-122.5376
Elk Grove,CA,38.416,-121.3842
Elkhorn,CA,36.8103,-121.7212
Elmira,CA,38.3523,-121.9077
Elverta,CA,38.7185,-121.4455
Emerald Lake Hills,CA,37.4662,-122.2675
Emeryville,CA,37.8382,-122.2932
Empire,CA,37.6432,-120.9045
Encinitas,CA,33.049,-117.2613
Escalon,CA,37.7912,-120.9982
Escondido,CA,33.1347,-117.0722
Esparto,CA,38.6934,-122.0241
Etna,CA,41.4582,-122.8946
Eucalyptus Hills,CA,32.885,-116.9453
Eureka,CA,40.7942,-124.1568
Exeter,CA,36.294,-119.1459
Fair Oaks,CA,38.6504,-121.2497
Fairbanks Ranch,CA,32.9919,-117.1859
Fairfax,CA,37.9886,-122.5952
Fairfield,CA,38.2592,-122.0324
Fairhaven,CA,40.7885,-124.2013
Fairmead,CA,37.0775,-120.1937
Fairview,CA,37.676,-122.048
Fall River Mills,CA,41.0069,-121.4401
Fallbrook,CA,33.3693,-117.2259
Farmersville,CA,36.3053,-119.2083
Farmington,CA,37.9299,-121.0043
Fellows,CA,35.1779,-119.5472
Felton,CA,37.0392,-122.0804
Ferndale,CA,40.5799,-124.2619
Fetters Hot Springs-Agua Caliente,CA,38.3274,-122.4871
Fiddletown,CA,38.5091,-120.7605
Fieldbrook,CA,40.9722,-124.025
Fields Landing,CA,40.7249,-124.2176
Fillmore,CA,34.3989,-118.9181
Firebaugh,CA,36.8534,-120.4536
Fish Camp,CA,37.4797,-119.6373
Florence-Graham,CA,33.9682,-118.2447
Florin,CA,38.4832,-121.4042
Floriston,CA,39.393,-120.0145
Flournoy,CA,39.9284,-122.4461
Folsom,CA,38.6668,-121.1422
Fontana,CA,34.0968,-117.4599
Foothill Farms,CA,38.6867,-121.3475
Forbestown,CA,39.53,-121.2689
Ford City,CA,35.1647,-119.4584
Forest Meadows,CA,38.1664,-120.4052
Forest Ranch,CA,39.8952,-121.6705
Foresthill,CA,39.0053,-120.8314
Forestville,CA,38.4825,-122.8899
Fort Bidwell,CA,41.8629,-120.1589
Fort Bragg,CA,39.4399,-123.8013
Fort Dick,CA,41.8663,-124.1526
Fort Irwin,CA,35.2476,-116.6834
Fort Jones,CA,41.6085,-122.8411
Fort Washington,CA,36.8793,-119.7613
Fortuna,CA,40.5862,-124.1419
Foster City,CA,37.5553,-122.2659
Fountain Valley,CA,33.7105,-117.9514
Fowler,CA,36.6243,-119.6737
Franklin,CA,37.3277,-120.5321
Frazier Park,CA,34.8123,-118.9542
Freedom,CA,36.9402,-121.7953
Freeport,CA,38.4636,-121.5022
Fremont,CA,37.5265,-121.9852
French Camp,CA,37.8802,-121.2803
French Gulch,CA,40.7166,-122.6312
French Valley,CA,33.5998,-117.1069
Fresno,CA,36.7831,-119.7941
Friant,CA,36.9848,-119.713
Fruitdale,CA,37.3116,-121.9357
Fruitridge Pocket,CA,38.5326,-121.4558
Fuller Acres,CA,35.3023,-118.9143
Fullerton,CA,33.8841,-117.9279
Fulton,CA,38.4937,-122.7734
Furnace Creek,CA,36.4277,-116.8747
Galt,CA,38.2693,-121.3
Garberville,CA,40.1003,-123.7948
Garden Acres,CA,37.9637,-121.2296
Garden Farms,CA,35.4158,-120.614
Garden Grove,CA,33.7787,-117.9601
Gardena,CA,33.8944,-118.3073
Garey,CA,34.8869,-120.3141
Garnet,CA,33.9179,-116.4796
Gasquet,CA,41.8429,-123.9733
Gazelle,CA,41.5137,-122.5215
Georgetown,CA,38.9112,-120.8356
Gerber,CA,40.0614,-122.1482
Geyserville,CA,38.7173,-122.9034
Gilroy,CA,37.0047,-121.5855
Glen Ellen,CA,38.3564,-122.5412
Glendale,CA,34.1818,-118.2468
Glendora,CA,34.1449,-117.8468
Gold River,CA,38.6268,-121.2488
Golden Hills,CA,35.1512,-118.5024
Goleta,CA,34.436,-119.8596
Gonzales,CA,36.506,-121.4429
Good Hope,CA,33.7706,-117.2772
Goodyears Bar,CA,39.5458,-120.8881
Goshen,CA,36.3518,-119.421
Graeagle,CA,39.7572,-120.6486
Grand Terrace,CA,34.0312,-117.3132
Grangeville,CA,36.3439,-119.7075
Granite Bay,CA,38.7601,-121.1714
Granite Hills,CA,32.8033,-116.9056
Grass Valley,CA,39.2237,-121.0521
Graton,CA,38.4376,-122.866
Grayson,CA,37.565,-121.1794
Greeley Hill,CA,37.7569,-120.1291
Green Valley,CA,38.2607,-122.1622
Greenacres,CA,35.3831,-119.1184
Greenfield,CA,36.3232,-121.2451
Greenhorn,CA,39.903,-120.759
Greenview,CA,41.5471,-122.9185
Greenville,CA,40.1336,-120.9454
Grenada,CA,41.6406,-122.526
Gridley,CA,39.3622,-121.6971
Grimes,CA,39.0742,-121.8988
Grizzly Flats,CA,38.6357,-120.5355
Groveland,CA,37.8325,-120.2394
Grover Beach,CA,35.1204,-120.6199
Guadalupe,CA,34.9608,-120.5735
Guerneville,CA,38.5137,-122.9894
Guinda,CA,38.8275,-122.1985
Gustine,CA,37.2545,-120.9949
Hacienda Heights,CA,33.997,-117.9728
Half Moon Bay,CA,37.4688,-122.4383
Hamilton Branch,CA,40.2772,-121.0961
Hamilton City,CA,39.7422,-122.0125
Hanford,CA,36.3274,-119.6549
Happy Camp,CA,41.8104,-123.3892
Harbison Canyon,CA,32.8273,-116.8381
Hardwick,CA,36.4026,-119.7208
Hartley,CA,38.4203,-121.9521
Hasley Canyon,CA,34.4817,-118.6665
Hat Creek,CA,40.8101,-121.4809
Hawaiian Gardens,CA,33.8303,-118.0728
Hawthorne,CA,33.9146,-118.3476
Hayfork,CA,40.561,-123.1299
Hayward,CA,37.6328,-122.0772
Healdsburg,CA,38.6229,-122.8651
Heber,CA,32.7318,-115.5204
Hemet,CA,33.7341,-116.9969
Herald,CA,38.2913,-121.2318
Hercules,CA,38.0064,-122.2564
Herlong,CA,40.1419,-120.1399
Hermosa Beach,CA,33.8654,-118.3966
Hesperia,CA,34.3975,-117.3147
Hickman,CA,37.6228,-120.7532
Hidden Hills,CA,34.1637,-118.6612
Hidden Meadows,CA,33.2236,-117.1198
Hidden Valley Lake,CA,38.8003,-122.5505
Highgrove,CA,34.0106,-117.3098
Highland,CA,34.1113,-117.1654
Hillsborough,CA,37.5573,-122.3587
Hilmar-Irwin,CA,37.4045,-120.8504
Hiouchi,CA,41.7936,-124.0662
Hollister,CA,36.8563,-121.3981
Holtville,CA,32.813,-115.378
Home Garden,CA,36.3025,-119.6362
Home Gardens,CA,33.8784,-117.5116
Homeland,CA,33.7459,-117.1132
Homestead Valley,CA,34.273,-116.4145
Homewood Canyon,CA,35.89,-117.3863
Honcut,CA,39.3326,-121.5388
Hood,CA,38.3693,-121.5155
Hoopa,CA,41.0802,-123.6972
Hopland,CA,38.9691,-123.1173
Hornbrook,CA,41.9079,-122.5596
Hornitos,CA,37.5034,-120.242
Hughson,CA,37.602,-120.866
Humboldt Hill,CA,40.7219,-124.1987
Huntington Beach,CA,33.696,-118.0025
Huntington Park,CA,33.98,-118.2167
Huron,CA,36.2041,-120.0961
Hyampom,CA,40.6262,-123.4689
Hydesville,CA,40.5579,-124.0822
Idyllwild-Pine Cove,CA,33.7443,-116.7257
Imperial,CA,32.839,-115.5719
Imperial Beach,CA,32.5689,-117.1184
Independence,CA,36.8274,-118.2132
Indian Falls,CA,40.0587,-120.9803
Indian Wells,CA,33.7036,-116.3396
Indianola,CA,40.8133,-124.0808
Indio,CA,33.7346,-116.2346
Indio Hills,CA,33.8411,-116.2484
Industry,CA,34.0175,-117.9267
Inglewood,CA,33.9566,-118.3444
Interlaken,CA,36.9505,-121.7363
Inverness,CA,38.082,-122.8471
Inyokern,CA,35.6546,-117.8212
Ione,CA,38.3613,-120.9422
Iron Horse,CA,39.7805,-120.4823
Irvine,CA,33.6772,-117.7738
Irwindale,CA,34.1121,-117.9636
Isla Vista,CA,34.4144,-119.8581
Isleton,CA,38.1617,-121.6051
Ivanhoe,CA,36.3886,-119.2202
Jackson,CA,38.3485,-120.7728
Jacumba,CA,32.6278,-116.1826
Jamestown,CA,37.9574,-120.411
Jamul,CA,32.7184,-116.8709
Janesville,CA,40.2809,-120.5335
Jenner,CA,38.4511,-123.1203
Johannesburg,CA,35.3718,-117.642
Johnstonville,CA,40.3789,-120.5846
Joshua Tree,CA,34.1236,-116.3128
Julian,CA,33.0735,-116.5889
Junction City,CA,40.7274,-123.0615
June Lake,CA,37.7677,-119.1022
Jurupa Valley,CA,34.001,-117.4705
Keddie,CA,40.0059,-120.9525
Keeler,CA,36.4846,-117.872
Keene,CA,35.233,-118.6103
Kelly Ridge,CA,39.5289,-121.4662
Kelseyville,CA,38.9704,-122.8327
Kennedy,CA,37.929,-121.2457
Kennedy Meadows,CA,36.0076,-118.11
Kensington,CA,37.9084,-122.2805
Kentfield,CA,37.9481,-122.5496
Kenwood,CA,38.4153,-122.5387
Kerman,CA,36.7249,-120.0625
Kernville,CA,35.7531,-118.4321
Keswick,CA,40.6135,-122.4606
Kettleman City,CA,36.009,-119.9627
Keyes,CA,37.5618,-120.9088
King City,CA,36.2166,-121.133
Kings Beach,CA,39.249,-120.0201
Kingsburg,CA,36.5245,-119.5602
Kingvale,CA,39.3203,-120.4387
Kirkwood,CA,38.693,-120.064
Klamath,CA,41.5322,-124.0063
Knights Landing,CA,38.7979,-121.7175
Knightsen,CA,37.9633,-121.6511
La Canada Flintridge,CA,34.2097,-118.2002
La Crescenta-Montrose,CA,34.2322,-118.2353
La Habra,CA,33.9278,-117.9513
La Habra Heights,CA,33.9602,-117.951
La Honda,CA,37.3182,-122.2651
La Mesa,CA,32.7703,-117.0204
La Mirada,CA,33.9025,-118.0093
La Palma,CA,33.8504,-118.0406
La Presa,CA,32.711,-117.0027
La Puente,CA,34.0323,-117.9533
La Quinta,CA,33.6536,-116.2785
La Riviera,CA,38.5683,-121.3544
La Selva Beach,CA,36.9276,-121.8445
La Verne,CA,34.1208,-117.7702
La Vina,CA,36.8799,-120.1147
Ladera,CA,37.3996,-122.199
Ladera Heights,CA,33.9972,-118.374
Ladera Ranch,CA,33.5491,-117.6416
Lafayette,CA,37.8919,-122.1189
Laguna Beach,CA,33.5448,-117.7612
Laguna Hills,CA,33.592,-117.6992
Laguna Niguel,CA,33.5275,-117.705
Laguna Woods,CA,33.6098,-117.7299
Lagunitas-Forest Knolls,CA,38.018,-122.6914
Lake Almanor Country Club,CA,40.2578,-121.147
Lake Almanor Peninsula,CA,40.2812,-121.1345
Lake Almanor West,CA,40.2336,-121.2021
Lake Arrowhead,CA,34.2531,-117.1945
Lake California,CA,40.3608,-122.2102
Lake City,CA,41.646,-120.2255
Lake Davis,CA,39.8564,-120.463
Lake Don Pedro,CA,37.6461,-120.3367
Lake Elsinore,CA,33.6847,-117.3344
Lake Forest,CA,33.6606,-117.6712
Lake Hughes,CA,34.6833,-118.4588
Lake Isabella,CA,35.6378,-118.4819
Lake Los Angeles,CA,34.6097,-117.8339
Lake Mathews,CA,33.825,-117.3683
Lake Nacimiento,CA,35.7309,-120.8702
Lake of the Pines,CA,39.0378,-121.0642
Lake of the Woods,CA,34.8226,-119.0027
Lake Riverside,CA,33.5173,-116.8107
Lake San Marcos,CA,33.1196,-117.2088
Lake Sherwood,CA,34.1339,-118.8804
Lake Wildwood,CA,39.235,-121.2003
Lakehead,CA,40.9007,-122.3924
Lakeland Village,CA,33.648,-117.3706
Lakeport,CA,39.0392,-122.9218
Lakeside,CA,32.856,-116.904
Lakeview,CA,33.8285,-117.1233
Lakewood,CA,33.8471,-118.1221
Lamont,CA,35.2651,-118.9159
Lanare,CA,36.4377,-119.9322
Lancaster,CA,34.6935,-118.1753
Larkfield-Wikiup,CA,38.513,-122.7536
Larkspur,CA,37.9393,-122.5313
Las Flores,CA,33.5838,-117.6235
Las Lomas,CA,36.8689,-121.7317
Lathrop,CA,37.809,-121.3131
Laton,CA,36.4338,-119.6916
Lawndale,CA,33.8884,-118.3531
Laytonville,CA,39.6715,-123.4945
Le Grand,CA,37.2288,-120.254
Lebec,CA,34.845,-118.8992
Lee Vining,CA,37.9547,-119.1221
Leggett,CA,39.8635,-123.7253
Lemon Cove,CA,36.379,-119.0312
Lemon Grove,CA,32.7331,-117.0344
Lemon Hill,CA,38.5172,-121.4573
Lemoore,CA,36.2949,-119.7983
Lemoore Station,CA,36.2633,-119.9049
Lennox,CA,33.938,-118.3586
Lenwood,CA,34.8861,-117.1078
Leona Valley,CA,34.6147,-118.299
Lewiston,CA,40.6969,-122.8225
Lexington Hills,CA,37.1616,-121.9879
Lincoln,CA,38.8759,-121.2916
Lincoln Village,CA,38.0054,-121.3339
Linda,CA,39.1241,-121.5421
Lindcove,CA,36.3595,-119.0721
Linden,CA,38.0186,-121.0994
Lindsay,CA,36.2082,-119.0897
Linnell Camp,CA,36.3089,-119.2225
Litchfield,CA,40.3877,-120.3809
Little River,CA,39.2703,-123.7817
Little Valley,CA,40.893,-121.1781
Littlerock,CA,34.5232,-117.9809
Live Oak,CA,36.986,-121.9804
Livermore,CA,37.6862,-121.7608
Livingston,CA,37.3875,-120.7248
Lockeford,CA,38.1509,-121.1554
Lockwood,CA,35.9412,-121.0802
Lodi,CA,38.1218,-121.2932
Lodoga,CA,39.3041,-122.5058
Loleta,CA,40.6409,-124.2225
Loma Linda,CA,34.0451,-117.2498
Loma Mar,CA,37.2658,-122.3007
Loma Rica,CA,39.3204,-121.4038
Lomita,CA,33.7933,-118.3175
Lompico,CA,37.1101,-122.0523
Lompoc,CA,34.6618,-120.4714
London,CA,36.481,-119.444
Lone Pine,CA,36.5774,-118.0777
Long Barn,CA,38.0957,-120.1285
Long Beach,CA,33.7981,-118.1675
Lookout,CA,41.21,-121.1545
Loomis,CA,38.8093,-121.1955
Los Alamitos,CA,33.7972,-118.0594
Los Alamos,CA,34.7375,-120.2783
Los Altos,CA,37.3685,-122.0966
Los Altos Hills,CA,37.3671,-122.139
Los Angeles,CA,34.1139,-118.4068
Los Banos,CA,37.063,-120.8406
Los Berros,CA,35.0809,-120.545
Los Gatos,CA,37.2303,-121.956
Los Molinos,CA,40.027,-122.0981
Los Olivos,CA,34.6647,-120.118
Los Osos,CA,35.3068,-120.8249
Los Ranchos,CA,35.2102,-120.6291
Lost Hills,CA,35.6254,-119.6789
Lower Lake,CA,38.9119,-122.6085
Loyalton,CA,39.6768,-120.2448
Loyola,CA,37.3502,-122.098
Lucas Valley-Marinwood,CA,38.0405,-122.5765
Lucerne,CA,39.0697,-122.776
Lucerne Valley,CA,34.4427,-116.9021
Lynwood,CA,33.924,-118.2017
Lytle Creek,CA,34.2499,-117.5044
Mabie,CA,39.7771,-120.5447
Macdoel,CA,41.8258,-122.0058
Mad River,CA,40.4325,-123.4917
Madera,CA,36.9631,-120.0782
Madera Acres,CA,37.0123,-120.0799
Madison,CA,38.675,-121.9702
Magalia,CA,39.8228,-121.6078
Malaga,CA,36.6816,-119.7318
Malibu,CA,34.0368,-118.7845
Mammoth Lakes,CA,37.6273,-118.99
Manchester,CA,38.9744,-123.6909
Manhattan Beach,CA,33.8895,-118.3972
Manila,CA,40.8513,-124.1631
Manteca,CA,37.7927,-121.2264
Manton,CA,40.4202,-121.854
March ARB,CA,33.8888,-117.2776
Maricopa,CA,35.0516,-119.4054
Marin City,CA,37.8711,-122.5137
Marina,CA,36.6812,-121.7895
Marina del Rey,CA,33.9765,-118.4486
Mariposa,CA,37.4873,-119.9682
Markleeville,CA,38.6841,-119.8225
Martell,CA,38.3623,-120.8039
Martinez,CA,37.9985,-122.116
Marysville,CA,39.1518,-121.5835
Matheny,CA,36.1707,-119.3516
Mather,CA,38.5489,-121.2832
Maxwell,CA,39.2771,-122.1946
Mayfair,CA,36.7693,-119.7612
Mayflower Village,CA,34.116,-118.0096
Maywood,CA,33.9885,-118.1877
McArthur,CA,41.0415,-121.4068
McClellan Park,CA,38.6631,-121.4015
McClenney Tract,CA,35.822,-118.6478
McCloud,CA,41.254,-122.136
McFarland,CA,35.6781,-119.2414
McKinleyville,CA,40.9488,-124.0857
McKittrick,CA,35.2981,-119.6249
McSwain,CA,37.3146,-120.5867
Mead Valley,CA,33.8333,-117.2852
Meadow Valley,CA,39.9322,-121.0831
Meadow Vista,CA,39.003,-121.0304
Meadowbrook,CA,33.7253,-117.2851
Mecca,CA,33.5767,-116.0645
Meiners Oaks,CA,34.4505,-119.2731
Mendocino,CA,39.311,-123.7908
Mendota,CA,36.7555,-120.3776
Menifee,CA,33.6909,-117.1849
Menlo Park,CA,37.4686,-122.1672
Mentone,CA,34.0609,-117.1108
Merced,CA,37.3057,-120.4778
Meridian,CA,39.1404,-121.9079
Mesa,CA,37.4189,-118.5424
Mesa Verde,CA,33.5957,-114.7317
Mesa Vista,CA,38.8103,-119.8033
Mettler,CA,35.0635,-118.9729
Mexican Colony,CA,35.4689,-119.2687
Mi-Wuk Village,CA,38.057,-120.179
Middletown,CA,38.7518,-122.6221
Midpines,CA,37.5531,-119.9485
Midway City,CA,33.7451,-117.9849
Milford,CA,40.1634,-120.3686
Mill Valley,CA,37.9085,-122.5421
Millbrae,CA,37.5994,-122.4023
Millville,CA,40.5576,-122.1696
Milpitas,CA,37.4339,-121.8921
Mineral,CA,40.3755,-121.5694
Minkler,CA,36.7277,-119.4587
Mira Monte,CA,34.4284,-119.2853
Miranda,CA,40.2289,-123.8173
Mission Canyon,CA,34.4534,-119.7125
Mission Hills,CA,34.6861,-120.4404
Mission Viejo,CA,33.6095,-117.655
Modesto,CA,37.6374,-121.0028
Mohawk Vista,CA,39.8048,-120.5883
Mojave,CA,35.0139,-118.1895
Mokelumne Hill,CA,38.3057,-120.7061
Monmouth,CA,36.5656,-119.7405
Mono City,CA,38.0412,-119.1467
Mono Vista,CA,38.0124,-120.2697
Monrovia,CA,34.165,-117.9921
Monson,CA,36.4927,-119.3358
Montague,CA,41.7276,-122.5304
Montalvin Manor,CA,37.9977,-122.33
Montara,CA,37.5482,-122.4924
Montclair,CA,34.0714,-117.698
Monte Rio,CA,38.4683,-123.0147
Monte Sereno,CA,37.2404,-121.9882
Montebello,CA,34.0155,-118.1108
Montecito,CA,34.4382,-119.6286
Monterey,CA,36.5922,-121.8807
Monterey Park,CA,34.0497,-118.1326
Monterey Park Tract,CA,37.5268,-121.0115
Montgomery Creek,CA,40.8415,-121.9215
Monument Hills,CA,38.6641,-121.8756
Moorpark,CA,34.2855,-118.877
Morada,CA,38.0386,-121.2456
Moraga,CA,37.8439,-122.1225
Moreno Valley,CA,33.9244,-117.2045
Morgan Hill,CA,37.1326,-121.6417
Morongo Valley,CA,34.0724,-116.5627
Morro Bay,CA,35.3681,-120.8481
Moskowite Corner,CA,38.4464,-122.1945
Moss Beach,CA,37.5184,-122.5036
Moss Landing,CA,36.8019,-121.7872
Mount Hebron,CA,41.7855,-122.0083
Mount Hermon,CA,37.0511,-122.0533
Mount Shasta,CA,41.3206,-122.315
Mountain Gate,CA,40.7184,-122.3262
Mountain House,CA,37.774,-121.5452
Mountain Mesa,CA,35.6411,-118.4047
Mountain Ranch,CA,38.2509,-120.5119
Mountain View,CA,37.4,-122.0796
Mountain View Acres,CA,34.4976,-117.3472
Muir Beach,CA,37.8654,-122.5858
Murphys,CA,38.1447,-120.4348
Murrieta,CA,33.572,-117.1909
Muscoy,CA,34.155,-117.3477
Myrtletown,CA,40.7888,-124.1286
Napa,CA,38.2976,-122.3011
National City,CA,32.6654,-117.0983
Needles,CA,34.8164,-114.6189
Nevada City,CA,39.2607,-121.0231
New Cuyama,CA,34.9421,-119.6808
New Pine Creek,CA,41.9872,-120.3009
Newark,CA,37.5204,-122.0312
Newcastle,CA,38.8677,-121.1318
Newell,CA,41.8897,-121.3675
Newman,CA,37.3157,-121.0211
Newport Beach,CA,33.6151,-117.8669
Nicasio,CA,38.0605,-122.7008
Nice,CA,39.1266,-122.8526
Nicolaus,CA,38.8981,-121.5729
Niland,CA,33.2387,-115.5146
Nipinnawasee,CA,37.4031,-119.7293
Nipomo,CA,35.0323,-120.4991
Norco,CA,33.9252,-117.5499
Nord,CA,39.774,-121.9549
Norris Canyon,CA,37.7454,-121.9878
North Auburn,CA,38.9306,-121.0821
North Edwards,CA,35.0474,-117.8093
North El Monte,CA,34.103,-118.0238
North Fair Oaks,CA,37.4754,-122.2035
North Gate,CA,37.9062,-121.9981
North Highlands,CA,38.6713,-121.3721
North Lakeport,CA,39.0883,-122.9054
North Richmond,CA,37.9642,-122.3711
North San Juan,CA,39.3719,-121.106
North Shore,CA,33.5157,-115.9092
North Tustin,CA,33.7644,-117.7945
Norwalk,CA,33.9069,-118.0829
Novato,CA,38.092,-122.5576
Nubieber,CA,41.0967,-121.1816
Nuevo,CA,33.8011,-117.1415
Oak Glen,CA,34.0448,-116.9497
Oak Hills,CA,34.3912,-117.4125
Oak Park,CA,34.1849,-118.7669
Oak Shores,CA,35.7624,-120.9817
Oak View,CA,34.399,-119.2976
Oakdale,CA,37.7616,-120.847
Oakhurst,CA,37.3342,-119.6483
Oakland,CA,37.7903,-122.2165
Oakley,CA,37.9929,-121.6951
Oakville,CA,38.4384,-122.4067
Oasis,CA,33.5275,-116.1261
Occidental,CA,38.4004,-122.9349
Oceano,CA,35.1019,-120.609
Oceanside,CA,33.2247,-117.3083
Ocotillo,CA,32.7431,-116.002
Oildale,CA,35.4249,-119.0279
Ojai,CA,34.4487,-119.2469
Olancha,CA,36.2704,-118.0015
Old Fig Garden,CA,36.7989,-119.8051
Old Station,CA,40.6722,-121.4228
Olivehurst,CA,39.0817,-121.5549
Ontario,CA,34.0393,-117.6064
Onyx,CA,35.6839,-118.2102
Orange,CA,33.8038,-117.8218
Orange Cove,CA,36.6211,-119.3188
Orangevale,CA,38.6881,-121.2209
Orcutt,CA,34.8668,-120.4269
Orick,CA,41.2909,-124.0692
Orinda,CA,37.8808,-122.1791
Orland,CA,39.7461,-122.1856
Orosi,CA,36.5434,-119.2903
Oroville,CA,39.4999,-121.5634
Oroville East,CA,39.4947,-121.4866
Oxnard,CA,34.1963,-119.1815
Pacheco,CA,37.9878,-122.07
Pacific Grove,CA,36.6192,-121.9255
Pacifica,CA,37.6112,-122.4781
Pajaro,CA,36.9016,-121.7417
Pajaro Dunes,CA,36.8722,-121.8101
Pala,CA,33.3617,-117.0696
Palermo,CA,39.4313,-121.5225
Palm Desert,CA,33.7378,-116.3695
Palm Springs,CA,33.8017,-116.5382
Palmdale,CA,34.5944,-118.1057
Palo Alto,CA,37.3913,-122.1468
Palo Cedro,CA,40.5511,-122.2363
Palo Verde,CA,33.4279,-114.7273
Palos Verdes Estates,CA,33.7871,-118.3976
Panorama Heights,CA,35.8068,-118.627
Paradise,CA,39.7558,-121.6063
Paradise Park,CA,37.0063,-122.0425
Paramount,CA,33.8976,-118.1652
Parklawn,CA,37.6069,-120.9793
Parksdale,CA,36.9465,-120.0212
Parkway,CA,38.4993,-121.452
Parkwood,CA,36.9293,-120.0482
Parlier,CA,36.6087,-119.5434
Pasadena,CA,34.1597,-118.139
Pasatiempo,CA,37.0035,-122.0265
Paskenta,CA,39.8833,-122.5458
Patterson,CA,37.4758,-121.1535
Patterson Tract,CA,36.3795,-119.2956
Patton Village,CA,40.1401,-120.1778
Paynes Creek,CA,40.3409,-121.9174
Pearsonville,CA,35.8188,-117.8755
Penn Valley,CA,39.1954,-121.1942
Penngrove,CA,38.3005,-122.6707
Penryn,CA,38.8478,-121.1699
Perris,CA,33.7899,-117.2233
Pescadero,CA,37.2507,-122.3725
Petaluma,CA,38.2423,-122.6267
Peters,CA,37.9763,-121.044
Phelan,CA,34.4398,-117.5248
Phillipsville,CA,40.2117,-123.7844
Philo,CA,39.0657,-123.4452
Phoenix Lake,CA,38.0075,-120.3089
Pico Rivera,CA,33.9902,-118.0888
Piedmont,CA,37.8226,-122.23
Pike,CA,39.4278,-120.9996
Pine Canyon,CA,36.1757,-121.1498
Pine Flat,CA,35.8737,-118.6427
Pine Grove,CA,38.4074,-120.6606
Pine Hills,CA,40.7313,-124.1551
Pine Mountain Club,CA,34.8446,-119.1669
Pine Mountain Lake,CA,37.8599,-120.1843
Pine Valley,CA,32.8415,-116.5107
Pinole,CA,37.9931,-122.2834
Pinon Hills,CA,34.4438,-117.6214
Pioneer,CA,38.4354,-120.5848
Piru,CA,34.4075,-118.7999
Pismo Beach,CA,35.1484,-120.6492
Pittsburg,CA,38.0182,-121.8964
Pixley,CA,35.9769,-119.2889
Placentia,CA,33.8807,-117.8553
Placerville,CA,38.7308,-120.7978
Plainview,CA,36.1423,-119.1375
Planada,CA,37.2892,-120.3207
Pleasant Hill,CA,37.954,-122.0759
Pleasanton,CA,37.6663,-121.8805
Pleasure Point,CA,36.9618,-121.9715
Plumas Eureka,CA,39.7982,-120.6645
Plumas Lake,CA,38.9924,-121.558
Plymouth,CA,38.4776,-120.8584
Point Arena,CA,38.9123,-123.6955
Point Reyes Station,CA,38.0847,-122.8093
Pollock Pines,CA,38.7564,-120.5904
Pomona,CA,34.0585,-117.7626
Poplar-Cotton Center,CA,36.0564,-119.1493
Port Costa,CA,38.0446,-122.185
Port Hueneme,CA,34.1617,-119.2036
Porterville,CA,36.0644,-119.0338
Portola,CA,39.8241,-120.4733
Portola Valley,CA,37.3713,-122.2203
Poso Park,CA,35.8114,-118.6364
Potrero,CA,32.6131,-116.6068
Potter Valley,CA,39.319,-123.1123
Poway,CA,32.9871,-117.0201
Prattville,CA,40.206,-121.1575
Princeton,CA,39.4029,-122.0212
Proberta,CA,40.0762,-122.1776
Prunedale,CA,36.8064,-121.6555
Quartz Hill,CA,34.6527,-118.2163
Quincy,CA,39.931,-120.9548
Rackerby,CA,39.4261,-121.3542
Rail Road Flat,CA,38.3168,-120.491
Rainbow,CA,33.4098,-117.1395
Raisin City,CA,36.6033,-119.9092
Ramona,CA,33.0474,-116.8767
Rancho Calaveras,CA,38.1248,-120.857
Rancho Cordova,CA,38.574,-121.2523
Rancho Cucamonga,CA,34.1248,-117.5666
Rancho Mirage,CA,33.7634,-116.4271
Rancho Murieta,CA,38.5085,-121.0716
Rancho Palos Verdes,CA,33.7554,-118.3637
Rancho San Diego,CA,32.7624,-116.9197
Rancho Santa Fe,CA,33.024,-117.1992
Rancho Santa Margarita,CA,33.6318,-117.5989
Rancho Tehama Reserve,CA,40.001,-122.4418
Randsburg,CA,35.368,-117.6607
Red Bluff,CA,40.1735,-122.2413
Red Corral,CA,38.4116,-120.6056
Redcrest,CA,40.3987,-123.9474
Redding,CA,40.5698,-122.365
Redlands,CA,34.0511,-117.1712
Redondo Beach,CA,33.8574,-118.3766
Redway,CA,40.1209,-123.822
Redwood City,CA,37.5026,-122.2252
Redwood Valley,CA,39.269,-123.2023
Reedley,CA,36.5987,-119.4473
Reliez Valley,CA,37.9399,-122.1027
Rialto,CA,34.1174,-117.3894
Richfield,CA,39.9738,-122.1732
Richgrove,CA,35.7966,-119.1069
Richmond,CA,37.9477,-122.339
Richvale,CA,39.4937,-121.7507
Ridgecrest,CA,35.6308,-117.6621
Ridgemark,CA,36.8082,-121.3623
Rio del Mar,CA,36.9607,-121.8807
Rio Dell,CA,40.5022,-124.1103
Rio Linda,CA,38.6876,-121.4418
Rio Oso,CA,38.9518,-121.531
Rio Vista,CA,38.1763,-121.7025
Ripley,CA,33.5238,-114.6531
Ripon,CA,37.7417,-121.131
River Pines,CA,38.5454,-120.7475
Riverbank,CA,37.7268,-120.9402
Riverdale,CA,36.4304,-119.8671
Riverdale Park,CA,37.6028,-121.0425
Riverside,CA,33.9381,-117.3948
Robbins,CA,38.8672,-121.7055
Robinson Mill,CA,39.4857,-121.3202
Rocklin,CA,38.8075,-121.2488
Rodeo,CA,38.0368,-122.2526
Rodriguez Camp,CA,35.809,-119.1388
Rohnert Park,CA,38.348,-122.6964
Rolling Hills,CA,33.76,-118.3471
Rolling Hills Estates,CA,33.7783,-118.3509
Rollingwood,CA,37.9655,-122.3305
Romoland,CA,33.7648,-117.1572
Rosamond,CA,34.8658,-118.2154
Rose Hills,CA,34.009,-118.0419
Rosedale,CA,35.3887,-119.2058
Rosemead,CA,34.0689,-118.0823
Rosemont,CA,38.5477,-121.3553
Roseville,CA,38.7703,-121.3196
Ross,CA,37.9638,-122.5615
Rossmoor,CA,33.7886,-118.0803
Rough and Ready,CA,39.234,-121.1381
Round Mountain,CA,40.8005,-121.9376
Round Valley,CA,37.4067,-118.5819
Rouse,CA,37.6196,-121.0084
Rowland Heights,CA,33.9716,-117.8911
Running Springs,CA,34.2104,-117.1147
Ruth,CA,40.2943,-123.3483
Rutherford,CA,38.4568,-122.4231
Sacramento,CA,38.5667,-121.4683
Salida,CA,37.7145,-121.087
Salinas,CA,36.6884,-121.6317
Salmon Creek,CA,38.3463,-123.0595
Salton City,CA,33.2994,-115.9609
Salton Sea Beach,CA,33.3759,-116.0115
Samoa,CA,40.8146,-124.1893
San Andreas,CA,38.1911,-120.6763
San Anselmo,CA,37.9821,-122.5699
San Antonio Heights,CA,34.1571,-117.6592
San Ardo,CA,36.0237,-120.9074
San Bernardino,CA,34.1417,-117.2946
San Bruno,CA,37.6254,-122.4313
San Buenaventura,CA,34.2741,-119.2314
San Carlos,CA,37.4982,-122.268
San Clemente,CA,33.4498,-117.6103
San Diego,CA,32.8312,-117.1225
San Diego Country Estates,CA,33.0093,-116.7874
San Dimas,CA,34.1082,-117.809
San Fernando,CA,34.2886,-118.4363
San Francisco,CA,37.7562,-122.443
San Gabriel,CA,34.0948,-118.099
San Geronimo,CA,38.0068,-122.6634
San Jacinto,CA,33.797,-116.9916
San Joaquin,CA,36.6057,-120.1897
San Jose,CA,37.3019,-121.8486
San Juan Bautista,CA,36.8455,-121.538
San Juan Capistrano,CA,33.5009,-117.6544
San Leandro,CA,37.7071,-122.1601
San Lorenzo,CA,37.6737,-122.1349
San Lucas,CA,36.1283,-121.0217
San Luis Obispo,CA,35.2669,-120.6691
San Marcos,CA,33.135,-117.1744
San Marino,CA,34.1224,-118.1132
San Martin,CA,37.0829,-121.5963
San Mateo,CA,37.5521,-122.3122
San Miguel,CA,37.8867,-122.0368
San Pablo,CA,37.9628,-122.3425
San Pasqual,CA,34.1393,-118.1027
San Rafael,CA,37.9905,-122.5222
San Ramon,CA,37.7625,-121.9365
San Simeon,CA,35.6182,-121.1375
Sand City,CA,36.6189,-121.8478
Sanger,CA,36.699,-119.5575
Santa Ana,CA,33.7366,-117.8819
Santa Barbara,CA,34.4285,-119.7202
Santa Clara,CA,37.3645,-121.968
Santa Clarita,CA,34.4175,-118.4964
Santa Cruz,CA,36.9789,-122.0346
Santa Fe Springs,CA,33.933,-118.0625
Santa Margarita,CA,35.3893,-120.6084
Santa Maria,CA,34.9334,-120.4432
Santa Monica,CA,34.0232,-118.4813
Santa Nella,CA,37.1014,-121.0153
Santa Paula,CA,34.3521,-119.0698
Santa Rosa,CA,38.4458,-122.7067
Santa Rosa Valley,CA,34.2453,-118.9023
Santa Susana,CA,34.258,-118.6662
Santa Venetia,CA,38.0055,-122.5032
Santa Ynez,CA,34.6151,-120.0944
Santee,CA,32.8554,-116.9851
Saranap,CA,37.8878,-122.076
Saratoga,CA,37.2684,-122.0263
Saticoy,CA,34.2819,-119.1452
Sattley,CA,39.6265,-120.4357
Sausalito,CA,37.858,-122.4932
Scotia,CA,40.4774,-124.1032
Scotts Valley,CA,37.0555,-122.0118
Sea Ranch,CA,38.7165,-123.4527
Seacliff,CA,36.977,-121.9176
Seal Beach,CA,33.7542,-118.0714
Searles Valley,CA,35.7701,-117.3967
Seaside,CA,36.6224,-121.8191
Sebastopol,CA,38.4001,-122.8276
Seeley,CA,32.7899,-115.6842
Selma,CA,36.5715,-119.6143
Sequoia Crest,CA,36.1858,-118.6256
Sereno del Mar,CA,38.3836,-123.0732
Seville,CA,36.4856,-119.2247
Shafter,CA,35.4794,-119.2013
Shandon,CA,35.6536,-120.3831
Shasta,CA,40.591,-122.4797
Shasta Lake,CA,40.679,-122.3775
Shaver Lake,CA,37.0971,-119.3245
Shell Ridge,CA,37.906,-122.0345
Shelter Cove,CA,40.0389,-124.0558
Sheridan,CA,38.969,-121.3559
Shingle Springs,CA,38.6665,-120.937
Shingletown,CA,40.5035,-121.86
Shoshone,CA,35.951,-116.3055
Sierra Brooks,CA,39.6426,-120.2153
Sierra City,CA,39.574,-120.6297
Sierra Madre,CA,34.1687,-118.0504
Sierra Village,CA,38.0768,-120.1624
Sierraville,CA,39.575,-120.3637
Signal Hill,CA,33.8029,-118.1681
Silver Lakes,CA,34.7519,-117.3431
Silverado Resort,CA,38.3536,-122.2556
Simi Valley,CA,34.2663,-118.749
Sisquoc,CA,34.8622,-120.2943
Sky Valley,CA,33.8912,-116.3551
Sleepy Hollow,CA,38.012,-122.5877
Smartsville,CA,39.2053,-121.2928
Smith Corner,CA,35.4788,-119.2771
Smith River,CA,41.9249,-124.1494
Snelling,CA,37.5216,-120.4387
Soda Bay,CA,39.0024,-122.7794
Soda Springs,CA,39.3248,-120.3784
Solana Beach,CA,32.9942,-117.2575
Soledad,CA,36.4432,-121.3426
Solvang,CA,34.5936,-120.1401
Sonoma,CA,38.2902,-122.4598
Sonora,CA,37.9819,-120.3828
Soquel,CA,36.9978,-121.9482
Soulsbyville,CA,37.9917,-120.2617
South Dos Palos,CA,36.9707,-120.6467
South El Monte,CA,34.0493,-118.0484
South Gate,CA,33.9448,-118.1926
South Lake Tahoe,CA,38.9393,-119.9828
South Monrovia Island,CA,34.1234,-117.9958
South Oroville,CA,39.4767,-121.5439
South Pasadena,CA,34.1103,-118.1573
South San Francisco,CA,37.6536,-122.4197
South San Gabriel,CA,34.0489,-118.0961
South San Jose Hills,CA,34.0123,-117.9041
South Taft,CA,35.1293,-119.4575
South Whittier,CA,33.9336,-118.0311
Spaulding,CA,40.6557,-120.7863
Spreckels,CA,36.6247,-121.6465
Spring Garden,CA,39.9012,-120.7935
Spring Valley,CA,32.7316,-116.9766
Spring Valley Lake,CA,34.4987,-117.2683
Springville,CA,36.1168,-118.8345
Squaw Valley,CA,36.6944,-119.2
Squirrel Mountain Valley,CA,35.6176,-118.4046
St. Helena,CA,38.5063,-122.4682
Stallion Springs,CA,35.0935,-118.6477
Stanford,CA,37.4252,-122.1674
Stanton,CA,33.8002,-117.9935
Stevenson Ranch,CA,34.3894,-118.5885
Stevinson,CA,37.3247,-120.8497
Stinson Beach,CA,37.9051,-122.6456
Stirling City,CA,39.9065,-121.5361
Stockton,CA,37.9765,-121.3109
Stonyford,CA,39.3703,-122.5445
Stratford,CA,36.1884,-119.8224
